[
    {
        "Id": 6,
        "Title": "بیرون بر غدیر با غذاهای خوشمزه",
        "Category": "رستوران و فست فود و کافه و بستنی",
        "Location": "شاهزاده قاسم",
        "City": "شیراز",
        "Province": "فارس",
        "OfferPercent": 18.4,
        "MainImageUri": "/Content/ServiceImages/46.jpg"
    },
    {
        "Id": 146,
        "Title": "قلیه سرا عامو حسین",
        "Category": "رستوران و فست فود و کافه و بستنی",
        "Location": "زرهی",
        "City": "شیراز",
        "Province": "فارس",
        "OfferPercent": 12,
        "MainImageUri": "/Content/ServiceImages/5209.jpg"
    },
    {
        "Id": 15,
        "Title": "مشاور املاک ",
        "Category": "خدمات",
        "Location": "بلوار استقلال",
        "City": "شیراز",
        "Province": "فارس",
        "OfferPercent": 32,
        "MainImageUri": "/Content/ServiceImages/121.jpg"
    },
    {
        "Id": 120,
        "Title": "سالن زیبایی پونه",
        "Category": "زیبایی و آرایشی",
        "Location": "خیابان قصردشت (رحمت آباد)",
        "City": "شیراز",
        "Province": "فارس",
        "OfferPercent": 32,
        "MainImageUri": "/Content/ServiceImages/747.jpg"
    },
    {
        "Id": 98,
        "Title": "درمانگاه دندانپزشکی سپیده",
        "Category": "سلامتی و پزشکی",
        "Location": "قصردشت",
        "City": "شیراز",
        "Province": "فارس",
        "OfferPercent": 17.6,
        "MainImageUri": "/Content/ServiceImages/5272.jpg"
    },
    {
        "Id": 91,
        "Title": "کافی نت کلیک",
        "Category": "خدمات",
        "Location": "خیابان قائم",
        "City": "شیراز",
        "Province": "فارس",
        "OfferPercent": 16,
        "MainImageUri": "/Content/ServiceImages/4872.jpg"
    },
    {
        "Id": 119,
        "Title": "کارواش پرستو",
        "Category": "خدمات اتومبیل",
        "Location": "چهارراه بنفشه",
        "City": "شیراز",
        "Province": "فارس",
        "OfferPercent": 16,
        "MainImageUri": "/Content/ServiceImages/5255.jpg"
    },
    {
        "Id": 124,
        "Title": "سوپر مارکت بیر تک مارکت ",
        "Category": "هایپر مارکت و سوپر مارکت ها",
        "Location": "خیابان محلاتی",
        "City": "شیراز",
        "Province": "فارس",
        "OfferPercent": 8,
        "MainImageUri": "/Content/ServiceImages/6135.jpg"
    },
    {
        "Id": 141,
        "Title": "بیرون بر رواق",
        "Category": "رستوران و فست فود و کافه و بستنی",
        "Location": "ملاصدرا",
        "City": "شیراز",
        "Province": "فارس",
        "OfferPercent": 9.6,
        "MainImageUri": "/Content/ServiceImages/990.jpg"
    },
    {
        "Id": 145,
        "Title": "اتلیه عکس شانون ",
        "Category": "خدمات",
        "Location": "معالی اباد ",
        "City": "شیراز",
        "Province": "فارس",
        "OfferPercent": 17.6,
        "MainImageUri": "/Content/ServiceImages/903.jpg"
    },
    {
        "Id": 147,
        "Title": "آجیل ماجیل",
        "Category": "هایپر مارکت و سوپر مارکت ها",
        "Location": "پاسداران",
        "City": "شیراز",
        "Province": "فارس",
        "OfferPercent": 9.6,
        "MainImageUri": "/Content/ServiceImages/971.jpg"
    },
    {
        "Id": 160,
        "Title": "شهربازی ماشاومیشا",
        "Category": "آموزشی",
        "Location": "فرهنگ شهر",
        "City": "شیراز",
        "Province": "فارس",
        "OfferPercent": 16,
        "MainImageUri": "/Content/ServiceImages/1057.jpg"
    },
    {
        "Id": 156,
        "Title": "ارایشگاه گلها",
        "Category": "زیبایی و آرایشی",
        "Location": "پاسداران",
        "City": "شیراز",
        "Province": "فارس",
        "OfferPercent": 14.4,
        "MainImageUri": "/Content/ServiceImages/5107.jpg"
    },
    {
        "Id": 161,
        "Title": "کافه دیزی",
        "Category": "رستوران و فست فود و کافه و بستنی",
        "Location": "سیاحتگر",
        "City": "شیراز",
        "Province": "فارس",
        "OfferPercent": 20,
        "MainImageUri": "/Content/ServiceImages/1148.jpg"
    },
    {
        "Id": 180,
        "Title": "دكوراسيون شهر كاغذي",
        "Category": "خدمات",
        "Location": "شهرک فرهنگیان",
        "City": "شیراز",
        "Province": "فارس",
        "OfferPercent": 16,
        "MainImageUri": "/Content/ServiceImages/5094.jpg"
    },
    {
        "Id": 175,
        "Title": "مرکزنشاط و تندرستی و ورزشی ایریک",
        "Category": "سلامتی و پزشکی",
        "Location": "فرهنگ شهر",
        "City": "شیراز",
        "Province": "فارس",
        "OfferPercent": 24,
        "MainImageUri": "/Content/ServiceImages/1245.jpg"
    },
    {
        "Id": 215,
        "Title": "گل فروشی پرنس",
        "Category": "فروشگاه و گالری",
        "Location": "فرهنگ شهر",
        "City": "شیراز",
        "Province": "فارس",
        "OfferPercent": 16,
        "MainImageUri": "/Content/ServiceImages/1493.jpg"
    },
    {
        "Id": 235,
        "Title": "فروشگاه مرغ طلایی",
        "Category": "قنادی - مرغ و گوشت و ماهی",
        "Location": "پاسداران",
        "City": "شیراز",
        "Province": "فارس",
        "OfferPercent": 3.2,
        "MainImageUri": "/Content/ServiceImages/1597.jpg"
    },
    {
        "Id": 241,
        "Title": "پوشاک اسپورت",
        "Category": "فروشگاه و گالری",
        "Location": "خیابان بازار",
        "City": "خرم آباد",
        "Province": "لرستان",
        "OfferPercent": 12,
        "MainImageUri": "/Content/ServiceImages/5049.jpg"
    },
    {
        "Id": 250,
        "Title": "گالری مبلمان pts",
        "Category": "فروشگاه و گالری",
        "Location": "خیابان آ یت الله بروجردی ",
        "City": "الشتر",
        "Province": "لرستان",
        "OfferPercent": 12,
        "MainImageUri": "/Content/ServiceImages/2353.jpg"
    },
    {
        "Id": 258,
        "Title": "فروشگاه و نوشت افزار سنایی",
        "Category": "فروشگاه و گالری",
        "Location": "یک",
        "City": "جهرم",
        "Province": "فارس",
        "OfferPercent": 9.6,
        "MainImageUri": "/Content/ServiceImages/5044.jpg"
    },
    {
        "Id": 294,
        "Title": "بازارچه خیریه محمد امین",
        "Category": "فروشگاه عمده فروشی",
        "Location": "شیراز - بلوار زند",
        "City": "شیراز",
        "Province": "فارس",
        "OfferPercent": 5.6,
        "MainImageUri": "/Content/ServiceImages/1957.jpg"
    },
    {
        "Id": 295,
        "Title": "بیرون بر نمونه پوستچی",
        "Category": "رستوران و فست فود و کافه و بستنی",
        "Location": "خیابان پوستچی",
        "City": "شیراز",
        "Province": "فارس",
        "OfferPercent": 9.6,
        "MainImageUri": "/Content/ServiceImages/4993.jpg"
    },
    {
        "Id": 297,
        "Title": "شهر قهوه شعبه 2",
        "Category": "رستوران و فست فود و کافه و بستنی",
        "Location": "میدان جهاد",
        "City": "جهرم",
        "Province": "فارس",
        "OfferPercent": 8,
        "MainImageUri": "/Content/ServiceImages/1949.jpg"
    },
    {
        "Id": 298,
        "Title": "عینک سازی ،عینک فروشی واپتومتریست",
        "Category": "فروشگاه و گالری",
        "Location": "خیابان مطهری",
        "City": "جهرم",
        "Province": "فارس",
        "OfferPercent": 13.6,
        "MainImageUri": "/Content/ServiceImages/4991.jpg"
    },
    {
        "Id": 299,
        "Title": "لیزر کامپیوتر دانشجو",
        "Category": "خدمات",
        "Location": "22 بهمن",
        "City": "جهرم",
        "Province": "فارس",
        "OfferPercent": 11.2,
        "MainImageUri": "/Content/ServiceImages/4990.jpg"
    },
    {
        "Id": 300,
        "Title": "پوشاک زنانه ترمه (ارائه بروزترین پوشاک زنانه)",
        "Category": "فروشگاه و گالری",
        "Location": "خیابان منوچهری",
        "City": "جهرم",
        "Province": "فارس",
        "OfferPercent": 8,
        "MainImageUri": "/Content/ServiceImages/4989.jpg"
    },
    {
        "Id": 305,
        "Title": "عینک بینا",
        "Category": "فروشگاه و گالری",
        "Location": "کلوان،بلوار معلم",
        "City": "جهرم",
        "Province": "فارس",
        "OfferPercent": 13.6,
        "MainImageUri": "/Content/ServiceImages/1995.jpg"
    },
    {
        "Id": 306,
        "Title": "فروش آب تصفیه شده وآب مقطر. ",
        "Category": "خدمات",
        "Location": "خیابان امام خمینی",
        "City": "شیراز",
        "Province": "فارس",
        "OfferPercent": 16,
        "MainImageUri": "/Content/ServiceImages/4935.jpg"
    },
    {
        "Id": 320,
        "Title": "نوشت افزار گراف",
        "Category": "آموزشی",
        "Location": "بلوار ولیعصر",
        "City": "خرم آباد",
        "Province": "لرستان",
        "OfferPercent": 8,
        "MainImageUri": "/Content/ServiceImages/4919.jpg"
    },
    {
        "Id": 321,
        "Title": "درب و پنجره آرکا",
        "Category": "لوازم خانگی و کاربردی منزل",
        "Location": "بلوار ولیعصر",
        "City": "خرم آباد",
        "Province": "لرستان",
        "OfferPercent": 12,
        "MainImageUri": "/Content/ServiceImages/4920.jpg"
    },
    {
        "Id": 325,
        "Title": "ایزوگام کریمی افشین",
        "Category": "خدمات",
        "Location": "میدان راهنمایی",
        "City": "جهرم",
        "Province": "فارس",
        "OfferPercent": 9.6,
        "MainImageUri": "/Content/ServiceImages/2097.jpg"
    },
    {
        "Id": 334,
        "Title": "کلینیک چشم پزشکی دکتر شادمانی",
        "Category": "سلامتی و پزشکی",
        "Location": "شیراز - بلوار زند",
        "City": "شیراز",
        "Province": "فارس",
        "OfferPercent": 13.6,
        "MainImageUri": "/Content/ServiceImages/4901.jpg"
    },
    {
        "Id": 329,
        "Title": "نمایندگی ال جی",
        "Category": "لوازم خانگی و کاربردی منزل",
        "Location": "بلوار جانبازان",
        "City": "جهرم",
        "Province": "فارس",
        "OfferPercent": 2.4,
        "MainImageUri": "/Content/ServiceImages/2117.jpg"
    },
    {
        "Id": 332,
        "Title": "شیرینی سرای هدیه",
        "Category": "قنادی - مرغ و گوشت و ماهی",
        "Location": "خیابان امام حسین",
        "City": "جهرم",
        "Province": "فارس",
        "OfferPercent": 8,
        "MainImageUri": "/Content/ServiceImages/2165.jpg"
    },
    {
        "Id": 331,
        "Title": "آجیل و خشکبار هدیه",
        "Category": "فروشگاه و گالری",
        "Location": "امام حسین",
        "City": "جهرم",
        "Province": "فارس",
        "OfferPercent": 4.8,
        "MainImageUri": "/Content/ServiceImages/4869.jpg"
    },
    {
        "Id": 340,
        "Title": "بگیر و ببر سلیم شعبه مرکزی (آشپزخانه)",
        "Category": "رستوران و فست فود و کافه و بستنی",
        "Location": "بلوار امام",
        "City": "جهرم",
        "Province": "فارس",
        "OfferPercent": 4,
        "MainImageUri": "/Content/ServiceImages/2201.jpg"
    },
    {
        "Id": 341,
        "Title": "بگیر و ببر سلیم(شعبه 1)",
        "Category": "رستوران و فست فود و کافه و بستنی",
        "Location": "بلوار امام خمینی",
        "City": "جهرم",
        "Province": "فارس",
        "OfferPercent": 4,
        "MainImageUri": "/Content/ServiceImages/2180.jpg"
    },
    {
        "Id": 342,
        "Title": "بگیر و ببر سلیم (شعبه 2)",
        "Category": "رستوران و فست فود و کافه و بستنی",
        "Location": "جانبازان",
        "City": "جهرم",
        "Province": "فارس",
        "OfferPercent": 4,
        "MainImageUri": "/Content/ServiceImages/2184.jpg"
    },
    {
        "Id": 343,
        "Title": "بگیر و ببر سلیم (شعبه3)",
        "Category": "رستوران و فست فود و کافه و بستنی",
        "Location": "استاد مطهری",
        "City": "جهرم",
        "Province": "فارس",
        "OfferPercent": 4,
        "MainImageUri": "/Content/ServiceImages/2192.jpg"
    },
    {
        "Id": 357,
        "Title": "تعویض روغن ماهور",
        "Category": "خدمات اتومبیل",
        "Location": "خیابان پاسداران",
        "City": "شیراز",
        "Province": "فارس",
        "OfferPercent": 16,
        "MainImageUri": "/Content/ServiceImages/2679.jpg"
    },
    {
        "Id": 411,
        "Title": "سوپرمارکت گلها",
        "Category": "هایپر مارکت و سوپر مارکت ها",
        "Location": "خیابان امام خمینی",
        "City": "جم",
        "Province": "بوشهر",
        "OfferPercent": 6.4,
        "MainImageUri": "/Content/ServiceImages/2574.jpg"
    },
    {
        "Id": 370,
        "Title": "فروشگاه لوازم خانگی بابایی ",
        "Category": "لوازم خانگی و کاربردی منزل",
        "Location": "خیابان امام ",
        "City": "الشتر",
        "Province": "لرستان",
        "OfferPercent": 4.8,
        "MainImageUri": "/Content/ServiceImages/2345.jpg"
    },
    {
        "Id": 371,
        "Title": "اتلیه عکاسی رونیکا",
        "Category": "خدمات",
        "Location": "فرهنگ شهر",
        "City": "شیراز",
        "Province": "فارس",
        "OfferPercent": 17.6,
        "MainImageUri": "/Content/ServiceImages/2356.jpg"
    },
    {
        "Id": 425,
        "Title": "رنگ فروشی زاهدی",
        "Category": "فروشگاه و گالری",
        "Location": "خیابان ساحلی",
        "City": "جم",
        "Province": "بوشهر",
        "OfferPercent": 6.4,
        "MainImageUri": "/Content/ServiceImages/4761.jpg"
    },
    {
        "Id": 377,
        "Title": "سالن عروس کُپ",
        "Category": "زیبایی و آرایشی",
        "Location": "ستارخان",
        "City": "شیراز",
        "Province": "فارس",
        "OfferPercent": 24,
        "MainImageUri": "/Content/ServiceImages/2410.jpg"
    },
    {
        "Id": 458,
        "Title": "لوازم یدکی سیتروئن",
        "Category": "خدمات اتومبیل",
        "Location": "جاده فرودگاه",
        "City": "جم",
        "Province": "بوشهر",
        "OfferPercent": 12,
        "MainImageUri": "/Content/ServiceImages/4720.jpg"
    },
    {
        "Id": 381,
        "Title": "تولیدی پوشاک محمدی",
        "Category": "فروشگاه و گالری",
        "Location": "پارامونت",
        "City": "شیراز",
        "Province": "فارس",
        "OfferPercent": 8,
        "MainImageUri": "/Content/ServiceImages/2424.jpg"
    },
    {
        "Id": 383,
        "Title": "مانتو سرای ادیب",
        "Category": "فروشگاه و گالری",
        "Location": "17 شهریور",
        "City": "جهرم",
        "Province": "فارس",
        "OfferPercent": 16,
        "MainImageUri": "/Content/ServiceImages/2431.jpg"
    },
    {
        "Id": 400,
        "Title": "پیرایش مدرن",
        "Category": "زیبایی و آرایشی",
        "Location": "گوکان ",
        "City": "باب انار",
        "Province": "فارس",
        "OfferPercent": 24,
        "MainImageUri": "/Content/ServiceImages/4775.jpg"
    },
    {
        "Id": 384,
        "Title": "پیتزا تک",
        "Category": "رستوران و فست فود و کافه و بستنی",
        "Location": "خیابان خیام",
        "City": "جهرم",
        "Province": "فارس",
        "OfferPercent": 8,
        "MainImageUri": "/Content/ServiceImages/4808.jpg"
    },
    {
        "Id": 386,
        "Title": "کباب کده و جگرسرای چمران",
        "Category": "رستوران و فست فود و کافه و بستنی",
        "Location": "چمران",
        "City": "شیراز",
        "Province": "فارس",
        "OfferPercent": 8,
        "MainImageUri": "/Content/ServiceImages/4807.jpg"
    },
    {
        "Id": 389,
        "Title": "ایستگاه واقعیت مجازی2",
        "Category": "ورزشی و تفریحی",
        "Location": "قدوسی شرقی",
        "City": "شیراز",
        "Province": "فارس",
        "OfferPercent": 25.6,
        "MainImageUri": "/Content/ServiceImages/2465.jpg"
    },
    {
        "Id": 393,
        "Title": "لوازم خانگی بابایی",
        "Category": "لوازم خانگی و کاربردی منزل",
        "Location": "سبزه میدان",
        "City": "خرم آباد",
        "Province": "لرستان",
        "OfferPercent": 4.8,
        "MainImageUri": "/Content/ServiceImages/4804.jpg"
    },
    {
        "Id": 394,
        "Title": "لوازم خانگی بابایی شعبه 2",
        "Category": "لوازم خانگی و کاربردی منزل",
        "Location": "سبزه میدان",
        "City": "خرم آباد",
        "Province": "لرستان",
        "OfferPercent": 4.8,
        "MainImageUri": "/Content/ServiceImages/4803.jpg"
    },
    {
        "Id": 395,
        "Title": "گالری الی",
        "Category": "لوازم خانگی و کاربردی منزل",
        "Location": "خیابان انقلاب",
        "City": "خرم آباد",
        "Province": "لرستان",
        "OfferPercent": 8,
        "MainImageUri": "/Content/ServiceImages/2500.jpg"
    },
    {
        "Id": 396,
        "Title": "گالری سارک",
        "Category": "فروشگاه و گالری",
        "Location": "شهدا شرقی",
        "City": "خرم آباد",
        "Province": "لرستان",
        "OfferPercent": 10.4,
        "MainImageUri": "/Content/ServiceImages/2513.jpg"
    },
    {
        "Id": 398,
        "Title": "فروشگاه لبنیات امیر ",
        "Category": "فروشگاه و گالری",
        "Location": "خیابان کهمان ",
        "City": "الشتر",
        "Province": "لرستان",
        "OfferPercent": 8,
        "MainImageUri": "/Content/ServiceImages/4778.jpg"
    },
    {
        "Id": 426,
        "Title": "پوشاک ناب جین",
        "Category": "فروشگاه و گالری",
        "Location": "پشت بانک ملی",
        "City": "جم",
        "Province": "بوشهر",
        "OfferPercent": 8,
        "MainImageUri": "/Content/ServiceImages/4760.jpg"
    },
    {
        "Id": 409,
        "Title": "سالن زیبایی آرمینا",
        "Category": "زیبایی و آرایشی",
        "Location": "مطهری جنوبی",
        "City": "شیراز",
        "Province": "فارس",
        "OfferPercent": 17.6,
        "MainImageUri": "/Content/ServiceImages/2561.jpg"
    },
    {
        "Id": 413,
        "Title": "اتلیه عروس شهر",
        "Category": "فروشگاه و گالری",
        "Location": "چهار راه فرهنگ",
        "City": "خرم آباد",
        "Province": "لرستان",
        "OfferPercent": 16,
        "MainImageUri": "/Content/ServiceImages/2586.jpg"
    },
    {
        "Id": 421,
        "Title": "بوتیک فرهنگ",
        "Category": "فروشگاه و گالری",
        "Location": "خیابان امام خمینی",
        "City": "جم",
        "Province": "بوشهر",
        "OfferPercent": 12,
        "MainImageUri": "/Content/ServiceImages/4766.jpg"
    },
    {
        "Id": 438,
        "Title": "سالن زیبایی مینوفر",
        "Category": "زیبایی و آرایشی",
        "Location": "۲۰ متری امام خمینی",
        "City": "شیراز",
        "Province": "فارس",
        "OfferPercent": 21.6,
        "MainImageUri": "/Content/ServiceImages/4748.jpg"
    },
    {
        "Id": 441,
        "Title": "میوه فروشی گنتار",
        "Category": "هایپر مارکت و سوپر مارکت ها",
        "Location": "خیابان سنگی",
        "City": "بوشهر",
        "Province": "بوشهر",
        "OfferPercent": 9.6,
        "MainImageUri": "/Content/ServiceImages/4744.jpg"
    },
    {
        "Id": 451,
        "Title": "خیاطی مهتاب",
        "Category": "خدمات",
        "Location": "خیابان سنگی",
        "City": "بوشهر",
        "Province": "بوشهر",
        "OfferPercent": 14.4,
        "MainImageUri": "/Content/ServiceImages/2780.jpg"
    },
    {
        "Id": 452,
        "Title": "گل فروشی قصر گل",
        "Category": "فروشگاه و گالری",
        "Location": "سه راه دواس",
        "City": "بوشهر",
        "Province": "بوشهر",
        "OfferPercent": 10.4,
        "MainImageUri": "/Content/ServiceImages/2795.jpg"
    },
    {
        "Id": 475,
        "Title": "مجتمع تعمیرگاهی ولیعصر",
        "Category": "خدمات اتومبیل",
        "Location": "جاده فرودگاه",
        "City": "جم",
        "Province": "بوشهر",
        "OfferPercent": 16,
        "MainImageUri": "/Content/ServiceImages/4714.jpg"
    },
    {
        "Id": 461,
        "Title": "کادویی رنگارنگ",
        "Category": "فروشگاه و گالری",
        "Location": "خیابان انقلاب",
        "City": "خرم آباد",
        "Province": "لرستان",
        "OfferPercent": 8,
        "MainImageUri": "/Content/ServiceImages/4721.jpg"
    },
    {
        "Id": 464,
        "Title": "کلینیک دندانپزشکی شبانه روزی نور",
        "Category": "سلامتی و پزشکی",
        "Location": "بلوار معلم",
        "City": "جهرم",
        "Province": "فارس",
        "OfferPercent": 8.8,
        "MainImageUri": "/Content/ServiceImages/4722.jpg"
    },
    {
        "Id": 466,
        "Title": "فروشگاه لوازم بهداشتی اکبری",
        "Category": "فروشگاه و گالری",
        "Location": "17 شهریور",
        "City": "جهرم",
        "Province": "فارس",
        "OfferPercent": 4,
        "MainImageUri": "/Content/ServiceImages/2910.jpg"
    },
    {
        "Id": 470,
        "Title": "پوشاک ارزانی",
        "Category": "فروشگاه و گالری",
        "Location": "پاسارگاد غربی",
        "City": "شیراز",
        "Province": "فارس",
        "OfferPercent": 5.6,
        "MainImageUri": "/Content/ServiceImages/2943.jpg"
    },
    {
        "Id": 481,
        "Title": "سالن زیبایی نوژا",
        "Category": "زیبایی و آرایشی",
        "Location": "باغ زهرا",
        "City": "بوشهر",
        "Province": "بوشهر",
        "OfferPercent": 14.4,
        "MainImageUri": "/Content/ServiceImages/4703.jpg"
    },
    {
        "Id": 482,
        "Title": "گالری عینک منوچهری",
        "Category": "فروشگاه و گالری",
        "Location": "عفیف آباد",
        "City": "شیراز",
        "Province": "فارس",
        "OfferPercent": 25.6,
        "MainImageUri": "/Content/ServiceImages/3013.jpg"
    },
    {
        "Id": 485,
        "Title": "فروشگاه کیف و کیفش ویرا چرم ",
        "Category": "فروشگاه و گالری",
        "Location": "خیابان شهید رحیمی",
        "City": "الشتر",
        "Province": "لرستان",
        "OfferPercent": 5.6,
        "MainImageUri": "/Content/ServiceImages/3038.jpg"
    },
    {
        "Id": 493,
        "Title": "لوازم تحریر",
        "Category": "فروشگاه و گالری",
        "Location": "زرهی ",
        "City": "شیراز",
        "Province": "فارس",
        "OfferPercent": 5.6,
        "MainImageUri": "/Content/ServiceImages/3077.jpg"
    },
    {
        "Id": 497,
        "Title": "مهر سازی هنر",
        "Category": "خدمات",
        "Location": "خیابان بیمارستان",
        "City": "برازجان",
        "Province": "بوشهر",
        "OfferPercent": 16,
        "MainImageUri": "/Content/ServiceImages/3100.jpg"
    },
    {
        "Id": 498,
        "Title": "کارواش خودرویی امیر",
        "Category": "خدمات اتومبیل",
        "Location": "خیابان منبع",
        "City": "برازجان",
        "Province": "بوشهر",
        "OfferPercent": 12,
        "MainImageUri": "/Content/ServiceImages/3107.jpg"
    },
    {
        "Id": 506,
        "Title": "شهر عکس",
        "Category": "خدمات",
        "Location": "بلوار معلم",
        "City": "جهرم",
        "Province": "فارس",
        "OfferPercent": 9.6,
        "MainImageUri": "/Content/ServiceImages/3158.jpg"
    },
    {
        "Id": 507,
        "Title": "دکتر فرخ ناز عباسیان",
        "Category": "سلامتی و پزشکی",
        "Location": "فرصت شمالی",
        "City": "جهرم",
        "Province": "فارس",
        "OfferPercent": 8,
        "MainImageUri": "/Content/ServiceImages/3169.jpg"
    },
    {
        "Id": 508,
        "Title": "کلینیک تخصصی پوست،مو،زیبایی و کاشت مو دکتر محمد کاظم جمشیدی",
        "Category": "سلامتی و پزشکی",
        "Location": "معالی اباد",
        "City": "شیراز",
        "Province": "فارس",
        "OfferPercent": 17.6,
        "MainImageUri": "/Content/ServiceImages/4695.jpg"
    },
    {
        "Id": 522,
        "Title": "مرکز چاپ پاسارگاد",
        "Category": "تبلیغات و چاپخانه",
        "Location": "استهبان،روبروی بانک مسکن",
        "City": "استهبان",
        "Province": "فارس",
        "OfferPercent": 16.8,
        "MainImageUri": "/Content/ServiceImages/3266.jpg"
    },
    {
        "Id": 509,
        "Title": "پوشاک بچه گانه الهه ناز",
        "Category": "فروشگاه و گالری",
        "Location": "خیابان بیمارستان",
        "City": "برازجان",
        "Province": "بوشهر",
        "OfferPercent": 16,
        "MainImageUri": "/Content/ServiceImages/3182.jpg"
    },
    {
        "Id": 512,
        "Title": "پارچه رز",
        "Category": "فروشگاه و گالری",
        "Location": "خیابان شهدا",
        "City": "خرم آباد",
        "Province": "لرستان",
        "OfferPercent": 8,
        "MainImageUri": "/Content/ServiceImages/3208.jpg"
    },
    {
        "Id": 513,
        "Title": "باشگاه بیلیارد المپیک",
        "Category": "ورزشی و تفریحی",
        "Location": "اطلسی",
        "City": "شیراز",
        "Province": "فارس",
        "OfferPercent": 25.6,
        "MainImageUri": "/Content/ServiceImages/3214.jpg"
    },
    {
        "Id": 514,
        "Title": "تجهیزات پزشکی آرام طب",
        "Category": "سلامتی و پزشکی",
        "Location": "خیابان شقایق",
        "City": "خرم آباد",
        "Province": "لرستان",
        "OfferPercent": 8,
        "MainImageUri": "/Content/ServiceImages/3216.jpg"
    },
    {
        "Id": 517,
        "Title": "کلینیک رادیولوژی و سونوگرافی دکتر براتی",
        "Category": "سلامتی و پزشکی",
        "Location": "فرصت شمالی",
        "City": "جهرم",
        "Province": "فارس",
        "OfferPercent": 8,
        "MainImageUri": "/Content/ServiceImages/3231.jpg"
    },
    {
        "Id": 519,
        "Title": "خانه بازی پرنسس",
        "Category": "آموزشی",
        "Location": "چهارراه هوابرد",
        "City": "شیراز",
        "Province": "فارس",
        "OfferPercent": 20,
        "MainImageUri": "/Content/ServiceImages/3243.jpg"
    },
    {
        "Id": 529,
        "Title": "سوپر مارکت قناری",
        "Category": "هایپر مارکت و سوپر مارکت ها",
        "Location": "خیابان ورزش",
        "City": "عالی شهر",
        "Province": "بوشهر",
        "OfferPercent": 9.6,
        "MainImageUri": "/Content/ServiceImages/3303.jpg"
    },
    {
        "Id": 531,
        "Title": "باشگاه بیلیارد هوابرد",
        "Category": "ورزشی و تفریحی",
        "Location": "خلدبرین",
        "City": "شیراز",
        "Province": "فارس",
        "OfferPercent": 25.6,
        "MainImageUri": "/Content/ServiceImages/3315.jpg"
    },
    {
        "Id": 547,
        "Title": "هتل ، رستوران و سفره خانه فرهمند",
        "Category": "هتل و سفر",
        "Location": "هواشناسی",
        "City": "جهرم",
        "Province": "فارس",
        "OfferPercent": 9.6,
        "MainImageUri": "/Content/ServiceImages/3399.jpg"
    },
    {
        "Id": 778,
        "Title": "موبایل فروشی میلاد11",
        "Category": "فروشگاه و گالری",
        "Location": "خیابان تختی",
        "City": "بروجرد",
        "Province": "لرستان",
        "OfferPercent": 12,
        "MainImageUri": "/Content/ServiceImages/4931.jpg"
    },
    {
        "Id": 546,
        "Title": "فیزیوتراپی توانا",
        "Category": "سلامتی و پزشکی",
        "Location": "خیابان یادگار امام",
        "City": "بوشهر",
        "Province": "بوشهر",
        "OfferPercent": 18.4,
        "MainImageUri": "/Content/ServiceImages/4674.jpg"
    },
    {
        "Id": 559,
        "Title": "هایپر مارکت نیکا",
        "Category": "هایپر مارکت و سوپر مارکت ها",
        "Location": "اطلسی",
        "City": "شیراز",
        "Province": "فارس",
        "OfferPercent": 8,
        "MainImageUri": "/Content/ServiceImages/4441.jpg"
    },
    {
        "Id": 560,
        "Title": "آزمایشگاه تخصصی دکتر فرخ نیا",
        "Category": "سلامتی و پزشکی",
        "Location": "۲۲بهمن",
        "City": "جهرم",
        "Province": "فارس",
        "OfferPercent": 4,
        "MainImageUri": "/Content/ServiceImages/3774.jpg"
    },
    {
        "Id": 561,
        "Title": "پارچه فروشی نبی زاده",
        "Category": "فروشگاه و گالری",
        "Location": "بازار سرپوشیده",
        "City": "جهرم",
        "Province": "فارس",
        "OfferPercent": 9.6,
        "MainImageUri": "/Content/ServiceImages/3477.jpg"
    },
    {
        "Id": 586,
        "Title": "مطب دندانپزشکی تخصصی ارتودنسی دکتر صالحی",
        "Category": "سلامتی و پزشکی",
        "Location": "میدان امام",
        "City": "بوشهر",
        "Province": "بوشهر",
        "OfferPercent": 18.4,
        "MainImageUri": "/Content/ServiceImages/3619.jpg"
    },
    {
        "Id": 566,
        "Title": "کالای برق قائمی فرد",
        "Category": "فروشگاه و گالری",
        "Location": "خیابان امام",
        "City": "برازجان",
        "Province": "بوشهر",
        "OfferPercent": 9.6,
        "MainImageUri": "/Content/ServiceImages/3505.jpg"
    },
    {
        "Id": 569,
        "Title": "مطب قلب و عروق دکتر رضایی مطلق",
        "Category": "سلامتی و پزشکی",
        "Location": "سنگی",
        "City": "بوشهر",
        "Province": "بوشهر",
        "OfferPercent": 18.4,
        "MainImageUri": "/Content/ServiceImages/4566.jpg"
    },
    {
        "Id": 3047,
        "Title": "سوپرمارکت یگانه",
        "Category": "هایپر مارکت و سوپر مارکت ها",
        "Location": "خیابان علوی",
        "City": "خرم آباد",
        "Province": "لرستان",
        "OfferPercent": 5.6,
        "MainImageUri": "/Content/ServiceImages/7759.jpg"
    },
    {
        "Id": 583,
        "Title": "گالری چرم ماه دوخت",
        "Category": "فروشگاه و گالری",
        "Location": "چهاراه بانک",
        "City": "خرم آباد",
        "Province": "لرستان",
        "OfferPercent": 8,
        "MainImageUri": "/Content/ServiceImages/5525.jpg"
    },
    {
        "Id": 587,
        "Title": "کافی نت دیتانت",
        "Category": "خدمات",
        "Location": "خیابان امام خمینی",
        "City": "خرم آباد",
        "Province": "لرستان",
        "OfferPercent": 8,
        "MainImageUri": "/Content/ServiceImages/4558.jpg"
    },
    {
        "Id": 588,
        "Title": "اموزشگاه  علمی و زبان سرای الماس",
        "Category": "آموزشی",
        "Location": "خیابان علوی",
        "City": "خرم آباد",
        "Province": "لرستان",
        "OfferPercent": 8,
        "MainImageUri": "/Content/ServiceImages/3906.jpg"
    },
    {
        "Id": 591,
        "Title": "قنادی شاهرودی ",
        "Category": "قنادی - مرغ و گوشت و ماهی",
        "Location": "خیابان امام",
        "City": "الشتر",
        "Province": "لرستان",
        "OfferPercent": 4.8,
        "MainImageUri": "/Content/ServiceImages/4557.jpg"
    },
    {
        "Id": 1932,
        "Title": "مبل سناتور ",
        "Category": "لوازم خانگی و کاربردی منزل",
        "Location": "بلوار ولیعصر ",
        "City": "خرم آباد",
        "Province": "لرستان",
        "OfferPercent": 6.4,
        "MainImageUri": "/Content/ServiceImages/6063.jpg"
    },
    {
        "Id": 597,
        "Title": "سالن زیبایی دریا",
        "Category": "زیبایی و آرایشی",
        "Location": "پایگاه هوایی",
        "City": "بوشهر",
        "Province": "بوشهر",
        "OfferPercent": 16,
        "MainImageUri": "/Content/ServiceImages/3676.jpg"
    },
    {
        "Id": 599,
        "Title": "استوديو برگ ها",
        "Category": "خدمات",
        "Location": "باغ زهرا",
        "City": "بوشهر",
        "Province": "بوشهر",
        "OfferPercent": 8,
        "MainImageUri": "/Content/ServiceImages/3694.jpg"
    },
    {
        "Id": 604,
        "Title": "هایپر مارکت خلیج فارس",
        "Category": "هایپر مارکت و سوپر مارکت ها",
        "Location": "راهنمایی",
        "City": "یاسوج",
        "Province": "کهگیلویه وبویراحمد",
        "OfferPercent": 4,
        "MainImageUri": "/Content/ServiceImages/3717.jpg"
    },
    {
        "Id": 613,
        "Title": "انتشارات قلم اعظم",
        "Category": "تبلیغات و چاپخانه",
        "Location": "خیابان انقلاب",
        "City": "خرم آباد",
        "Province": "لرستان",
        "OfferPercent": 24,
        "MainImageUri": "/Content/ServiceImages/4554.jpg"
    },
    {
        "Id": 715,
        "Title": "انواع مبلمان راحتی ، کلاسیک و آوانگارد ، سرویس خواب ، نهارخوری ",
        "Category": "لوازم خانگی و کاربردی منزل",
        "Location": "شیراز زرقان",
        "City": "شیراز",
        "Province": "فارس",
        "OfferPercent": 8,
        "MainImageUri": "/Content/ServiceImages/4649.jpg"
    },
    {
        "Id": 630,
        "Title": "کادوئی رضا",
        "Category": "لوازم خانگی و کاربردی منزل",
        "Location": "خیابان شهدا ",
        "City": "بروجرد",
        "Province": "لرستان",
        "OfferPercent": 9.6,
        "MainImageUri": "/Content/ServiceImages/3863.jpg"
    },
    {
        "Id": 618,
        "Title": "شیشه و سکوریت پارسیان",
        "Category": "فروشگاه و گالری",
        "Location": "خیابان شریعتی",
        "City": "برازجان",
        "Province": "بوشهر",
        "OfferPercent": 8,
        "MainImageUri": "/Content/ServiceImages/3792.jpg"
    },
    {
        "Id": 622,
        "Title": "گل فروشی",
        "Category": "فروشگاه و گالری",
        "Location": "ابتدای خ ناصرخسرو",
        "City": "خرم آباد",
        "Province": "لرستان",
        "OfferPercent": 8,
        "MainImageUri": "/Content/ServiceImages/3824.jpg"
    },
    {
        "Id": 626,
        "Title": "پوشاک بچگانه دیبا",
        "Category": "فروشگاه و گالری",
        "Location": "خیابان قصردشت",
        "City": "شیراز",
        "Province": "فارس",
        "OfferPercent": 12,
        "MainImageUri": "/Content/ServiceImages/7826.jpg"
    },
    {
        "Id": 633,
        "Title": "فروشگاه آرایشی قصری",
        "Category": "زیبایی و آرایشی",
        "Location": "راهنمایی",
        "City": "یاسوج",
        "Province": "کهگیلویه وبویراحمد",
        "OfferPercent": 8,
        "MainImageUri": "/Content/ServiceImages/3875.jpg"
    },
    {
        "Id": 635,
        "Title": "دکتر تولایی(جراح مغز و اعصاب و جراحی ستون فقرات)",
        "Category": "سلامتی و پزشکی",
        "Location": "خیابان بیسیم",
        "City": "بوشهر",
        "Province": "بوشهر",
        "OfferPercent": 18.4,
        "MainImageUri": "/Content/ServiceImages/4546.jpg"
    },
    {
        "Id": 638,
        "Title": "پوشاک ورزشی هیراد ",
        "Category": "فروشگاه و گالری",
        "Location": "خیابان‌شکری",
        "City": "بوشهر",
        "Province": "بوشهر",
        "OfferPercent": 8,
        "MainImageUri": "/Content/ServiceImages/3901.jpg"
    },
    {
        "Id": 644,
        "Title": "برنج سرای منوچهری",
        "Category": "فروشگاه و گالری",
        "Location": "فلکه اطلسی",
        "City": "شیراز",
        "Province": "فارس",
        "OfferPercent": 4,
        "MainImageUri": "/Content/ServiceImages/4985.jpg"
    },
    {
        "Id": 641,
        "Title": "فروشگاه لوازم بهداشتی ساختمان",
        "Category": "فروشگاه و گالری",
        "Location": "حافظ شمالی",
        "City": "بروجرد",
        "Province": "لرستان",
        "OfferPercent": 4,
        "MainImageUri": "/Content/ServiceImages/3925.jpg"
    },
    {
        "Id": 643,
        "Title": "خشکشویی پایتخت",
        "Category": "خدمات",
        "Location": "خیابان یادگار امام",
        "City": "بوشهر",
        "Province": "بوشهر",
        "OfferPercent": 20,
        "MainImageUri": "/Content/ServiceImages/3939.jpg"
    },
    {
        "Id": 799,
        "Title": "فروشگاه عطاری دمنوش های نیوشا نیک",
        "Category": "سلامتی و پزشکی",
        "Location": "گلدشت شرقی",
        "City": "خرم آباد",
        "Province": "لرستان",
        "OfferPercent": 8,
        "MainImageUri": "/Content/ServiceImages/5168.jpg"
    },
    {
        "Id": 652,
        "Title": "ارزانسرای قصر پوشاک",
        "Category": "فروشگاه و گالری",
        "Location": "شهدا ",
        "City": "بروجرد",
        "Province": "لرستان",
        "OfferPercent": 5.6,
        "MainImageUri": "/Content/ServiceImages/5919.jpg"
    },
    {
        "Id": 657,
        "Title": "مزون لباس عروس VIP",
        "Category": "فروشگاه و گالری",
        "Location": "خیابان ملاصدرا",
        "City": "بوشهر",
        "Province": "بوشهر",
        "OfferPercent": 24,
        "MainImageUri": "/Content/ServiceImages/4166.jpg"
    },
    {
        "Id": 658,
        "Title": "آتلیه عکسبرداری و فیلم برداری چیک",
        "Category": "خدمات",
        "Location": "خیابان فرودگاه",
        "City": "بوشهر",
        "Province": "بوشهر",
        "OfferPercent": 16,
        "MainImageUri": "/Content/ServiceImages/4165.jpg"
    },
    {
        "Id": 663,
        "Title": "بینایی سنجی و عینک فروشی دید گستر",
        "Category": "سلامتی و پزشکی",
        "Location": "بلوار زند",
        "City": "شیراز",
        "Province": "فارس",
        "OfferPercent": 17.6,
        "MainImageUri": "/Content/ServiceImages/4095.jpg"
    },
    {
        "Id": 672,
        "Title": "پوشاک دختران",
        "Category": "فروشگاه و گالری",
        "Location": "خیابان شهدا ",
        "City": "بروجرد",
        "Province": "لرستان",
        "OfferPercent": 8,
        "MainImageUri": "/Content/ServiceImages/4096.jpg"
    },
    {
        "Id": 703,
        "Title": "فروشگاه ورزشی فرهاد ",
        "Category": "فروشگاه و گالری",
        "Location": "باب انار",
        "City": "باب انار",
        "Province": "فارس",
        "OfferPercent": 8,
        "MainImageUri": "/Content/ServiceImages/4276.jpg"
    },
    {
        "Id": 695,
        "Title": "گالری حنا",
        "Category": "زیبایی و آرایشی",
        "Location": "خیابان خیبر ",
        "City": "بوشهر",
        "Province": "بوشهر",
        "OfferPercent": 14.4,
        "MainImageUri": "/Content/ServiceImages/4312.jpg"
    },
    {
        "Id": 680,
        "Title": "خوارو بار فروشی ",
        "Category": "فروشگاه عمده فروشی",
        "Location": "بازار ایت الاه بروجردی",
        "City": "بروجرد",
        "Province": "لرستان",
        "OfferPercent": 8,
        "MainImageUri": "/Content/ServiceImages/4153.jpg"
    },
    {
        "Id": 694,
        "Title": "فست فود بیروت",
        "Category": "رستوران و فست فود و کافه و بستنی",
        "Location": "خیابان باغ زهرا ",
        "City": "بوشهر",
        "Province": "بوشهر",
        "OfferPercent": 9.6,
        "MainImageUri": "/Content/ServiceImages/4313.jpg"
    },
    {
        "Id": 714,
        "Title": "آرایشی وبهداشتی نادیا",
        "Category": "زیبایی و آرایشی",
        "Location": "باب انار",
        "City": "باب انار",
        "Province": "فارس",
        "OfferPercent": 12,
        "MainImageUri": "/Content/ServiceImages/4426.jpg"
    },
    {
        "Id": 685,
        "Title": "دکوراسیون جلال ",
        "Category": "خدمات",
        "Location": "حافظ شمالی ",
        "City": "بروجرد",
        "Province": "لرستان",
        "OfferPercent": 5.6,
        "MainImageUri": "/Content/ServiceImages/4190.jpg"
    },
    {
        "Id": 686,
        "Title": "سوپر گوشت صحرا",
        "Category": "قنادی - مرغ و گوشت و ماهی",
        "Location": "میدان امام خمینی",
        "City": "جهرم",
        "Province": "فارس",
        "OfferPercent": 4.8,
        "MainImageUri": "/Content/ServiceImages/4494.jpg"
    },
    {
        "Id": 688,
        "Title": "آموزشگاه زبان های خارجی تابان",
        "Category": "آموزشی",
        "Location": "بلوار معلم",
        "City": "جهرم",
        "Province": "فارس",
        "OfferPercent": 16,
        "MainImageUri": "/Content/ServiceImages/4318.jpg"
    },
    {
        "Id": 691,
        "Title": "املاک پونک",
        "Category": "خدمات",
        "Location": "ارم",
        "City": "یاسوج",
        "Province": "کهگیلویه وبویراحمد",
        "OfferPercent": 20,
        "MainImageUri": "/Content/ServiceImages/4216.jpg"
    },
    {
        "Id": 775,
        "Title": "سوپر مارکت و مواد غذایی برادران مرتضوی",
        "Category": "هایپر مارکت و سوپر مارکت ها",
        "Location": "باب انار",
        "City": "باب انار",
        "Province": "فارس",
        "OfferPercent": 8,
        "MainImageUri": "/Content/ServiceImages/4914.jpg"
    },
    {
        "Id": 697,
        "Title": "تعمیر گاه حیدری",
        "Category": "خدمات اتومبیل",
        "Location": "بلوار بسیج",
        "City": "خورموج",
        "Province": "بوشهر",
        "OfferPercent": 16,
        "MainImageUri": "/Content/ServiceImages/4251.jpg"
    },
    {
        "Id": 702,
        "Title": "قصر پوشاک شعبه ۲",
        "Category": "فروشگاه و گالری",
        "Location": "خیابان شهدا ",
        "City": "بروجرد",
        "Province": "لرستان",
        "OfferPercent": 5.6,
        "MainImageUri": "/Content/ServiceImages/4271.jpg"
    },
    {
        "Id": 716,
        "Title": "شیرینی سرای مروارید",
        "Category": "قنادی - مرغ و گوشت و ماهی",
        "Location": "باب انار",
        "City": "باب انار",
        "Province": "فارس",
        "OfferPercent": 8,
        "MainImageUri": "/Content/ServiceImages/4425.jpg"
    },
    {
        "Id": 704,
        "Title": "مرکز خرید پوشاک رزقی",
        "Category": "فروشگاه و گالری",
        "Location": "جمهوری",
        "City": "جهرم",
        "Province": "فارس",
        "OfferPercent": 16,
        "MainImageUri": "/Content/ServiceImages/4285.jpg"
    },
    {
        "Id": 707,
        "Title": "رستوران هفت خوان",
        "Category": "رستوران و فست فود و کافه و بستنی",
        "Location": "خیابان باغ زهرا",
        "City": "بوشهر",
        "Province": "بوشهر",
        "OfferPercent": 12,
        "MainImageUri": "/Content/ServiceImages/4369.jpg"
    },
    {
        "Id": 721,
        "Title": "کت و شلوار فرهنگ",
        "Category": "فروشگاه و گالری",
        "Location": "خیابان دانش آموز ",
        "City": "الشتر",
        "Province": "لرستان",
        "OfferPercent": 5.6,
        "MainImageUri": "/Content/ServiceImages/4443.jpg"
    },
    {
        "Id": 725,
        "Title": "بیرون بر نارک",
        "Category": "رستوران و فست فود و کافه و بستنی",
        "Location": "صدرا",
        "City": "شیراز",
        "Province": "فارس",
        "OfferPercent": 9.6,
        "MainImageUri": "/Content/ServiceImages/5850.jpg"
    },
    {
        "Id": 727,
        "Title": "آموزشگاه زبان رسا",
        "Category": "آموزشی",
        "Location": "خیابان بیسیم",
        "City": "بوشهر",
        "Province": "بوشهر",
        "OfferPercent": 20,
        "MainImageUri": "/Content/ServiceImages/4502.jpg"
    },
    {
        "Id": 729,
        "Title": "پرده سرای سباء",
        "Category": "خدمات",
        "Location": "خیابان شفیق",
        "City": "خورموج",
        "Province": "بوشهر",
        "OfferPercent": 12,
        "MainImageUri": "/Content/ServiceImages/4516.jpg"
    },
    {
        "Id": 730,
        "Title": "کانون آگهی و تبلیغات شهر",
        "Category": "تبلیغات و چاپخانه",
        "Location": "خیابان سازمانی",
        "City": "برازجان",
        "Province": "بوشهر",
        "OfferPercent": 8,
        "MainImageUri": "/Content/ServiceImages/4521.jpg"
    },
    {
        "Id": 731,
        "Title": "طلای سپاهان",
        "Category": "طلا و نقره و بدلیجات",
        "Location": "خیابان انقلاب",
        "City": "بوشهر",
        "Province": "بوشهر",
        "OfferPercent": 3.2,
        "MainImageUri": "/Content/ServiceImages/4528.jpg"
    },
    {
        "Id": 732,
        "Title": "مشاور املاک آزادی",
        "Category": "خدمات",
        "Location": "خیابان سازمانی",
        "City": "برازجان",
        "Province": "بوشهر",
        "OfferPercent": 12,
        "MainImageUri": "/Content/ServiceImages/4530.jpg"
    },
    {
        "Id": 733,
        "Title": "بیرون بر دنیای غذا",
        "Category": "رستوران و فست فود و کافه و بستنی",
        "Location": "خیابان سازمانی",
        "City": "برازجان",
        "Province": "بوشهر",
        "OfferPercent": 8,
        "MainImageUri": "/Content/ServiceImages/4543.jpg"
    },
    {
        "Id": 734,
        "Title": "پوشاک دایان ",
        "Category": "فروشگاه و گالری",
        "Location": "پاساژ نیلوفر ",
        "City": "بروجرد",
        "Province": "لرستان",
        "OfferPercent": 13.6,
        "MainImageUri": "/Content/ServiceImages/4658.jpg"
    },
    {
        "Id": 735,
        "Title": "رستوران و چایخانه و قهوه خانه روحی",
        "Category": "رستوران و فست فود و کافه و بستنی",
        "Location": "خیابان انقلاب",
        "City": "خرم آباد",
        "Province": "لرستان",
        "OfferPercent": 8,
        "MainImageUri": "/Content/ServiceImages/4570.jpg"
    },
    {
        "Id": 736,
        "Title": "مزون ماه پوش ",
        "Category": "فروشگاه و گالری",
        "Location": "خیابان صفا ",
        "City": "بروجرد",
        "Province": "لرستان",
        "OfferPercent": 9.6,
        "MainImageUri": "/Content/ServiceImages/4577.jpg"
    },
    {
        "Id": 737,
        "Title": "لولزم خانگی سیلوان ",
        "Category": "لوازم خانگی و کاربردی منزل",
        "Location": "خیابان 60متری",
        "City": "خرم آباد",
        "Province": "لرستان",
        "OfferPercent": 4,
        "MainImageUri": "/Content/ServiceImages/4586.jpg"
    },
    {
        "Id": 739,
        "Title": "لوازم یدکی حامد ",
        "Category": "خدمات اتومبیل",
        "Location": "۴۵ متری شهرداری ",
        "City": "بروجرد",
        "Province": "لرستان",
        "OfferPercent": 12,
        "MainImageUri": "/Content/ServiceImages/4657.jpg"
    },
    {
        "Id": 748,
        "Title": "الکتریکی نور باران",
        "Category": "خدمات",
        "Location": "باب انار",
        "City": "باب انار",
        "Province": "فارس",
        "OfferPercent": 4.8,
        "MainImageUri": "/Content/ServiceImages/4745.jpg"
    },
    {
        "Id": 754,
        "Title": "بینایی سنجی و گالری عینک , کلبه عینک",
        "Category": "سلامتی و پزشکی",
        "Location": "قدوسی غربی",
        "City": "شیراز",
        "Province": "فارس",
        "OfferPercent": 9.6,
        "MainImageUri": "/Content/ServiceImages/4790.jpg"
    },
    {
        "Id": 756,
        "Title": "لوازم آرایشی پاسارگاد ",
        "Category": "زیبایی و آرایشی",
        "Location": "خیابان کاشانی ",
        "City": "بروجرد",
        "Province": "لرستان",
        "OfferPercent": 16,
        "MainImageUri": "/Content/ServiceImages/4797.jpg"
    },
    {
        "Id": 760,
        "Title": "فروشگاه و هایپر مارکت یوکابد",
        "Category": "هایپر مارکت و سوپر مارکت ها",
        "Location": "معالی آباد",
        "City": "شیراز",
        "Province": "فارس",
        "OfferPercent": 7.2,
        "MainImageUri": "/Content/ServiceImages/5055.jpg"
    },
    {
        "Id": 767,
        "Title": "فروشگاه الکترودریا",
        "Category": "خدمات اتومبیل",
        "Location": "بلوار شهید بهشتی",
        "City": "بروجرد",
        "Province": "لرستان",
        "OfferPercent": 6.4,
        "MainImageUri": "/Content/ServiceImages/4831.jpg"
    },
    {
        "Id": 768,
        "Title": "فروشگاه الماس شهر",
        "Category": "لوازم خانگی و کاربردی منزل",
        "Location": "بلوار شهید بهشتی",
        "City": "بروجرد",
        "Province": "لرستان",
        "OfferPercent": 8,
        "MainImageUri": "/Content/ServiceImages/4835.jpg"
    },
    {
        "Id": 769,
        "Title": "لوازم الکتریکی حسام مرادی",
        "Category": "فروشگاه و گالری",
        "Location": "خیابان شریعتی",
        "City": "برازجان",
        "Province": "بوشهر",
        "OfferPercent": 8,
        "MainImageUri": "/Content/ServiceImages/4841.jpg"
    },
    {
        "Id": 770,
        "Title": "کالای پزشکی و بهداشتی مرکزی",
        "Category": "سلامتی و پزشکی",
        "Location": "خیابان بیمارستان",
        "City": "برازجان",
        "Province": "بوشهر",
        "OfferPercent": 5.6,
        "MainImageUri": "/Content/ServiceImages/4849.jpg"
    },
    {
        "Id": 771,
        "Title": "رستوران سنتی شاندیز",
        "Category": "رستوران و فست فود و کافه و بستنی",
        "Location": "بلواربهشت",
        "City": "بروجرد",
        "Province": "لرستان",
        "OfferPercent": 12,
        "MainImageUri": "/Content/ServiceImages/6180.jpg"
    },
    {
        "Id": 772,
        "Title": "عکاسی رضا",
        "Category": "خدمات",
        "Location": "باب انار",
        "City": "باب انار",
        "Province": "فارس",
        "OfferPercent": 8.8,
        "MainImageUri": "/Content/ServiceImages/4915.jpg"
    },
    {
        "Id": 773,
        "Title": "رستوران ایتالیایی لورنزو LORENZO",
        "Category": "رستوران و فست فود و کافه و بستنی",
        "Location": "بلوار شهید بهشتی",
        "City": "بروجرد",
        "Province": "لرستان",
        "OfferPercent": 8,
        "MainImageUri": "/Content/ServiceImages/4863.jpg"
    },
    {
        "Id": 774,
        "Title": "برنج فروشی دانیال",
        "Category": "فروشگاه عمده فروشی",
        "Location": "خیابان فاطمی",
        "City": "بروجرد",
        "Province": "لرستان",
        "OfferPercent": 4.8,
        "MainImageUri": "/Content/ServiceImages/5052.jpg"
    },
    {
        "Id": 776,
        "Title": "سوپر میوه دست چین",
        "Category": "هایپر مارکت و سوپر مارکت ها",
        "Location": "پایگاه دریایی",
        "City": "بوشهر",
        "Province": "بوشهر",
        "OfferPercent": 10.4,
        "MainImageUri": "/Content/ServiceImages/4896.jpg"
    },
    {
        "Id": 777,
        "Title": "KAL CHARM",
        "Category": "فروشگاه و گالری",
        "Location": "خیابان کاشانی ",
        "City": "بروجرد",
        "Province": "لرستان",
        "OfferPercent": 8,
        "MainImageUri": "/Content/ServiceImages/4909.jpg"
    },
    {
        "Id": 779,
        "Title": "گالری نسترن",
        "Category": "زیبایی و آرایشی",
        "Location": "بلوار پاسارگاد",
        "City": "شیراز",
        "Province": "فارس",
        "OfferPercent": 20,
        "MainImageUri": "/Content/ServiceImages/4940.jpg"
    },
    {
        "Id": 781,
        "Title": "استخر سرپوشیده کوثر",
        "Category": "ورزشی و تفریحی",
        "Location": "بهمنی",
        "City": "بوشهر",
        "Province": "بوشهر",
        "OfferPercent": 20,
        "MainImageUri": "/Content/ServiceImages/4948.jpg"
    },
    {
        "Id": 782,
        "Title": "برق تخصصی نظامی",
        "Category": "خدمات اتومبیل",
        "Location": "خیابان رودکی ",
        "City": "بروجرد",
        "Province": "لرستان",
        "OfferPercent": 4,
        "MainImageUri": "/Content/ServiceImages/4987.jpg"
    },
    {
        "Id": 783,
        "Title": "فروشگاه دفترزاده نمایندگی انواع باطری اتومبیل",
        "Category": "خدمات اتومبیل",
        "Location": "بلوار انقلاب",
        "City": "جهرم",
        "Province": "فارس",
        "OfferPercent": 5.6,
        "MainImageUri": "/Content/ServiceImages/5082.jpg"
    },
    {
        "Id": 786,
        "Title": "خانه بازی رنگین کمان",
        "Category": "آموزشی",
        "Location": "بلوار عدالت",
        "City": "شیراز",
        "Province": "فارس",
        "OfferPercent": 25.6,
        "MainImageUri": "/Content/ServiceImages/4968.jpg"
    },
    {
        "Id": 787,
        "Title": "کلبه خانه بازی شادی ",
        "Category": "آموزشی",
        "Location": "چهارراه زندان",
        "City": "شیراز",
        "Province": "فارس",
        "OfferPercent": 9.6,
        "MainImageUri": "/Content/ServiceImages/4983.jpg"
    },
    {
        "Id": 790,
        "Title": "فروشگاه شکلات بار ",
        "Category": "فروشگاه و گالری",
        "Location": "دره گرم ",
        "City": "خرم آباد",
        "Province": "لرستان",
        "OfferPercent": 4,
        "MainImageUri": "/Content/ServiceImages/5081.jpg"
    },
    {
        "Id": 791,
        "Title": "پیرایش مردانه یونیک",
        "Category": "زیبایی و آرایشی",
        "Location": "چهارراه مجتمع",
        "City": "برازجان",
        "Province": "بوشهر",
        "OfferPercent": 16,
        "MainImageUri": "/Content/ServiceImages/5101.jpg"
    },
    {
        "Id": 793,
        "Title": "روسری سرای ",
        "Category": "فروشگاه و گالری",
        "Location": "خیابان بروجردی ",
        "City": "الشتر",
        "Province": "لرستان",
        "OfferPercent": 12,
        "MainImageUri": "/Content/ServiceImages/5202.jpg"
    },
    {
        "Id": 794,
        "Title": "پرده سرای امید",
        "Category": "لوازم خانگی و کاربردی منزل",
        "Location": "سید مصطفی",
        "City": "بروجرد",
        "Province": "لرستان",
        "OfferPercent": 5.6,
        "MainImageUri": "/Content/ServiceImages/5126.jpg"
    },
    {
        "Id": 795,
        "Title": "قصابی ابوالفتحی شعبه ۲",
        "Category": "فروشگاه و گالری",
        "Location": "سید مصطفی ",
        "City": "بروجرد",
        "Province": "لرستان",
        "OfferPercent": 8,
        "MainImageUri": "/Content/ServiceImages/5203.jpg"
    },
    {
        "Id": 796,
        "Title": "قصابی ابوالفتحی شعبه۱",
        "Category": "فروشگاه و گالری",
        "Location": "سید مصطفی",
        "City": "بروجرد",
        "Province": "لرستان",
        "OfferPercent": 12,
        "MainImageUri": "/Content/ServiceImages/5206.jpg"
    },
    {
        "Id": 797,
        "Title": "قصابی اریا ",
        "Category": "فروشگاه و گالری",
        "Location": "خیابان بهر العلوم ",
        "City": "بروجرد",
        "Province": "لرستان",
        "OfferPercent": 12,
        "MainImageUri": "/Content/ServiceImages/5917.jpg"
    },
    {
        "Id": 798,
        "Title": "طلاوجواهربساک",
        "Category": "طلا و نقره و بدلیجات",
        "Location": "خیابان شریعتی ",
        "City": "دورود",
        "Province": "لرستان",
        "OfferPercent": 4,
        "MainImageUri": "/Content/ServiceImages/5208.jpg"
    },
    {
        "Id": 800,
        "Title": "سالن آرایشی پروین",
        "Category": "خدمات",
        "Location": "خیابان انقلاب",
        "City": "خرم آباد",
        "Province": "لرستان",
        "OfferPercent": 24,
        "MainImageUri": "/Content/ServiceImages/5185.jpg"
    },
    {
        "Id": 1928,
        "Title": "کافی شاپ دبلنا ",
        "Category": "رستوران و فست فود و کافه و بستنی",
        "Location": "خیابان مطهری ",
        "City": "خرم آباد",
        "Province": "لرستان",
        "OfferPercent": 8,
        "MainImageUri": "/Content/ServiceImages/6067.jpg"
    },
    {
        "Id": 802,
        "Title": "کبابی عمو پرویز ",
        "Category": "رستوران و فست فود و کافه و بستنی",
        "Location": "میدان تختی ",
        "City": "بروجرد",
        "Province": "لرستان",
        "OfferPercent": 12,
        "MainImageUri": "/Content/ServiceImages/5201.jpg"
    },
    {
        "Id": 805,
        "Title": "غذای آماده اندیشه ",
        "Category": "رستوران و فست فود و کافه و بستنی",
        "Location": "شهرک اندیشه ",
        "City": "بروجرد",
        "Province": "لرستان",
        "OfferPercent": 8,
        "MainImageUri": "/Content/ServiceImages/5239.jpg"
    },
    {
        "Id": 807,
        "Title": "کلینیک ساختمانی فرهادزاده",
        "Category": "لوازم خانگی و کاربردی منزل",
        "Location": "ناصرالدين ",
        "City": "دورود",
        "Province": "لرستان",
        "OfferPercent": 8,
        "MainImageUri": "/Content/ServiceImages/5243.jpg"
    },
    {
        "Id": 806,
        "Title": "ظروف یکبار مصرف لشکری",
        "Category": "فروشگاه عمده فروشی",
        "Location": "شهر خفر",
        "City": "باب انار",
        "Province": "فارس",
        "OfferPercent": 6.4,
        "MainImageUri": "/Content/ServiceImages/5234.jpg"
    },
    {
        "Id": 808,
        "Title": "آقای رنگ مو( آرایشی 20)",
        "Category": "زیبایی و آرایشی",
        "Location": "خیابان شریعتی",
        "City": "دورود",
        "Province": "لرستان",
        "OfferPercent": 9.6,
        "MainImageUri": "/Content/ServiceImages/5299.jpg"
    },
    {
        "Id": 810,
        "Title": "کالا و لوازم ورزشی کاوه ",
        "Category": "فروشگاه و گالری",
        "Location": "مطهری ",
        "City": "خرم آباد",
        "Province": "لرستان",
        "OfferPercent": 8,
        "MainImageUri": "/Content/ServiceImages/5283.jpg"
    },
    {
        "Id": 811,
        "Title": "کاشی و سرامیک پرسپوليس ",
        "Category": "خدمات",
        "Location": "دره گرم ",
        "City": "خرم آباد",
        "Province": "لرستان",
        "OfferPercent": 5.6,
        "MainImageUri": "/Content/ServiceImages/5290.jpg"
    },
    {
        "Id": 812,
        "Title": "لوازم خانگی وکادویی پیشکش",
        "Category": "لوازم خانگی و کاربردی منزل",
        "Location": "خیابان شریعتی",
        "City": "دورود",
        "Province": "لرستان",
        "OfferPercent": 5.6,
        "MainImageUri": "/Content/ServiceImages/5296.jpg"
    },
    {
        "Id": 813,
        "Title": "دکتر فریدون فکری",
        "Category": "سلامتی و پزشکی",
        "Location": "شهر خفر",
        "City": "باب انار",
        "Province": "فارس",
        "OfferPercent": 12,
        "MainImageUri": "/Content/ServiceImages/5300.jpg"
    },
    {
        "Id": 816,
        "Title": "رستوران و بیرون بر غزال",
        "Category": "رستوران و فست فود و کافه و بستنی",
        "Location": "باب انار",
        "City": "باب انار",
        "Province": "فارس",
        "OfferPercent": 6.4,
        "MainImageUri": "/Content/ServiceImages/5384.jpg"
    },
    {
        "Id": 814,
        "Title": "ابمیوه طبیعی سبحان",
        "Category": "رستوران و فست فود و کافه و بستنی",
        "Location": "قصردشت",
        "City": "شیراز",
        "Province": "فارس",
        "OfferPercent": 20,
        "MainImageUri": "/Content/ServiceImages/5385.jpg"
    },
    {
        "Id": 817,
        "Title": "خانه بازی سرزمین بچه ها",
        "Category": "آموزشی",
        "Location": "پاسداران",
        "City": "شیراز",
        "Province": "فارس",
        "OfferPercent": 21.6,
        "MainImageUri": "/Content/ServiceImages/5383.jpg"
    },
    {
        "Id": 818,
        "Title": "پوشاک بچگانه طناز",
        "Category": "فروشگاه و گالری",
        "Location": "خیابان کاشانی ",
        "City": "بروجرد",
        "Province": "لرستان",
        "OfferPercent": 12,
        "MainImageUri": "/Content/ServiceImages/5328.jpg"
    },
    {
        "Id": 819,
        "Title": "باشگاه بدنسازی عصر بدن ",
        "Category": "ورزشی و تفریحی",
        "Location": "خیابان تختی ",
        "City": "بروجرد",
        "Province": "لرستان",
        "OfferPercent": 16,
        "MainImageUri": "/Content/ServiceImages/5382.jpg"
    },
    {
        "Id": 820,
        "Title": "موبایل گلکسی",
        "Category": "خدمات",
        "Location": "خیابان شریعتی",
        "City": "دورود",
        "Province": "لرستان",
        "OfferPercent": 16,
        "MainImageUri": "/Content/ServiceImages/5343.jpg"
    },
    {
        "Id": 831,
        "Title": "پوشاک فروشی mark",
        "Category": "فروشگاه و گالری",
        "Location": "خیابان مطهری",
        "City": "خرم آباد",
        "Province": "لرستان",
        "OfferPercent": 8,
        "MainImageUri": "/Content/ServiceImages/5404.jpg"
    },
    {
        "Id": 822,
        "Title": "فروشگاه لوازم ورزشی یورو اسپرت ",
        "Category": "فروشگاه و گالری",
        "Location": "خیابان شهدای شرقی ",
        "City": "خرم آباد",
        "Province": "لرستان",
        "OfferPercent": 8,
        "MainImageUri": "/Content/ServiceImages/5355.jpg"
    },
    {
        "Id": 821,
        "Title": "شرکت خانه آبی",
        "Category": "ساختمان",
        "Location": "سید مصطفی",
        "City": "بروجرد",
        "Province": "لرستان",
        "OfferPercent": 5.6,
        "MainImageUri": "/Content/ServiceImages/5348.jpg"
    },
    {
        "Id": 838,
        "Title": "پرده سرای امید ۲",
        "Category": "ساختمان",
        "Location": "خیابان تختی",
        "City": "بروجرد",
        "Province": "لرستان",
        "OfferPercent": 5.6,
        "MainImageUri": "/Content/ServiceImages/5438.jpg"
    },
    {
        "Id": 823,
        "Title": "کیف و کفش نیل ",
        "Category": "فروشگاه و گالری",
        "Location": "شهدای شرقی ",
        "City": "خرم آباد",
        "Province": "لرستان",
        "OfferPercent": 8,
        "MainImageUri": "/Content/ServiceImages/5365.jpg"
    },
    {
        "Id": 825,
        "Title": "دهکده گیاهان دارویی ابن سینا ",
        "Category": "سلامتی و پزشکی",
        "Location": "شهر خفر",
        "City": "باب انار",
        "Province": "فارس",
        "OfferPercent": 12,
        "MainImageUri": "/Content/ServiceImages/5380.jpg"
    },
    {
        "Id": 829,
        "Title": "نایک پلاس",
        "Category": "فروشگاه و گالری",
        "Location": "خیابان مطهری",
        "City": "خرم آباد",
        "Province": "لرستان",
        "OfferPercent": 12,
        "MainImageUri": "/Content/ServiceImages/5497.jpg"
    },
    {
        "Id": 827,
        "Title": "بوتیک بهار",
        "Category": "فروشگاه و گالری",
        "Location": "بهمنی",
        "City": "بوشهر",
        "Province": "بوشهر",
        "OfferPercent": 12,
        "MainImageUri": "/Content/ServiceImages/5644.jpg"
    },
    {
        "Id": 830,
        "Title": "لباس زیر زنانه نیکا",
        "Category": "فروشگاه و گالری",
        "Location": "خیابان مطهری",
        "City": "خرم آباد",
        "Province": "لرستان",
        "OfferPercent": 9.6,
        "MainImageUri": "/Content/ServiceImages/5402.jpg"
    },
    {
        "Id": 1971,
        "Title": "عطاری بهزادی",
        "Category": "فروشگاه و گالری",
        "Location": "خیابان انقلاب",
        "City": "خرم آباد",
        "Province": "لرستان",
        "OfferPercent": 5.6,
        "MainImageUri": "/Content/ServiceImages/6337.jpg"
    },
    {
        "Id": 833,
        "Title": "پالتو فروشی پروانک",
        "Category": "فروشگاه و گالری",
        "Location": "خیابان مطهری",
        "City": "خرم آباد",
        "Province": "لرستان",
        "OfferPercent": 8,
        "MainImageUri": "/Content/ServiceImages/5492.jpg"
    },
    {
        "Id": 834,
        "Title": "تعمیرگاه تخصصی ایران خودرو و سایپا رخشان",
        "Category": "خدمات اتومبیل",
        "Location": "شهر خفر",
        "City": "باب انار",
        "Province": "فارس",
        "OfferPercent": 20,
        "MainImageUri": "/Content/ServiceImages/5493.jpg"
    },
    {
        "Id": 835,
        "Title": "فروق برق اسپادانا",
        "Category": "خدمات",
        "Location": "خیابان کاشانی ",
        "City": "بروجرد",
        "Province": "لرستان",
        "OfferPercent": 6.4,
        "MainImageUri": "/Content/ServiceImages/5418.jpg"
    },
    {
        "Id": 836,
        "Title": "پوشاک اهورا",
        "Category": "فروشگاه و گالری",
        "Location": "خیابان شریعتی",
        "City": "دورود",
        "Province": "لرستان",
        "OfferPercent": 8,
        "MainImageUri": "/Content/ServiceImages/5496.jpg"
    },
    {
        "Id": 839,
        "Title": "پیرایش شهاب",
        "Category": "زیبایی و آرایشی",
        "Location": "ناصرالدین",
        "City": "دورود",
        "Province": "لرستان",
        "OfferPercent": 8,
        "MainImageUri": "/Content/ServiceImages/5494.jpg"
    },
    {
        "Id": 840,
        "Title": "پوشاک زنانه کندو candoo",
        "Category": "فروشگاه و گالری",
        "Location": "پاساژ نیلوفر ",
        "City": "بروجرد",
        "Province": "لرستان",
        "OfferPercent": 12,
        "MainImageUri": "/Content/ServiceImages/5941.jpg"
    },
    {
        "Id": 841,
        "Title": "مزون گلوریا",
        "Category": "فروشگاه و گالری",
        "Location": "خیابان شریعتی",
        "City": "دورود",
        "Province": "لرستان",
        "OfferPercent": 5.6,
        "MainImageUri": "/Content/ServiceImages/5456.jpg"
    },
    {
        "Id": 842,
        "Title": "جگرکی آرتین",
        "Category": "رستوران و فست فود و کافه و بستنی",
        "Location": "خیابان نیما یوشیج",
        "City": "بروجرد",
        "Province": "لرستان",
        "OfferPercent": 12,
        "MainImageUri": "/Content/ServiceImages/5464.jpg"
    },
    {
        "Id": 1846,
        "Title": "قصابی پدیده ",
        "Category": "فروشگاه و گالری",
        "Location": "میدان جعفری",
        "City": "بروجرد",
        "Province": "لرستان",
        "OfferPercent": 8,
        "MainImageUri": "/Content/ServiceImages/5573.jpg"
    },
    {
        "Id": 844,
        "Title": "لوازم یدکی پارس یدک",
        "Category": "خدمات اتومبیل",
        "Location": "شهر خفر",
        "City": "باب انار",
        "Province": "فارس",
        "OfferPercent": 8,
        "MainImageUri": "/Content/ServiceImages/5489.jpg"
    },
    {
        "Id": 845,
        "Title": "سوپر ساندویچ صدف",
        "Category": "رستوران و فست فود و کافه و بستنی",
        "Location": "باب انار",
        "City": "باب انار",
        "Province": "فارس",
        "OfferPercent": 8,
        "MainImageUri": "/Content/ServiceImages/5484.jpg"
    },
    {
        "Id": 846,
        "Title": "گالری داوود ",
        "Category": "فروشگاه و گالری",
        "Location": "خیابان تختی ",
        "City": "بروجرد",
        "Province": "لرستان",
        "OfferPercent": 12,
        "MainImageUri": "/Content/ServiceImages/5536.jpg"
    },
    {
        "Id": 1848,
        "Title": "عینک به دید ",
        "Category": "سلامتی و پزشکی",
        "Location": "شهدا شرقی",
        "City": "خرم آباد",
        "Province": "لرستان",
        "OfferPercent": 12,
        "MainImageUri": "/Content/ServiceImages/5505.jpg"
    },
    {
        "Id": 1849,
        "Title": "موبایل میلاد ",
        "Category": "خدمات",
        "Location": "خیابان تختی ",
        "City": "بروجرد",
        "Province": "لرستان",
        "OfferPercent": 16,
        "MainImageUri": "/Content/ServiceImages/5535.jpg"
    },
    {
        "Id": 1850,
        "Title": "کترینگ و غدای اماده ریحان ",
        "Category": "رستوران و فست فود و کافه و بستنی",
        "Location": "خیابان مدرس شمالی ",
        "City": "بروجرد",
        "Province": "لرستان",
        "OfferPercent": 9.6,
        "MainImageUri": "/Content/ServiceImages/5534.jpg"
    },
    {
        "Id": 1852,
        "Title": "فست فود yoi",
        "Category": "رستوران و فست فود و کافه و بستنی",
        "Location": "خیابان تختی ",
        "City": "بروجرد",
        "Province": "لرستان",
        "OfferPercent": 8,
        "MainImageUri": "/Content/ServiceImages/5531.jpg"
    },
    {
        "Id": 1853,
        "Title": "ارزانسرای کفش شاهدی",
        "Category": "فروشگاه و گالری",
        "Location": "خیابان شریعتی",
        "City": "دورود",
        "Province": "لرستان",
        "OfferPercent": 4.8,
        "MainImageUri": "/Content/ServiceImages/5542.jpg"
    },
    {
        "Id": 1854,
        "Title": "پوشاک مدرن سالار",
        "Category": "فروشگاه و گالری",
        "Location": "خیابان شریعتی",
        "City": "دورود",
        "Province": "لرستان",
        "OfferPercent": 8,
        "MainImageUri": "/Content/ServiceImages/5606.jpg"
    },
    {
        "Id": 1855,
        "Title": "مبلمان پاردیس",
        "Category": "لوازم خانگی و کاربردی منزل",
        "Location": "میدان غزه",
        "City": "بروجرد",
        "Province": "لرستان",
        "OfferPercent": 4,
        "MainImageUri": "/Content/ServiceImages/5550.jpg"
    },
    {
        "Id": 1857,
        "Title": "داروخانه ",
        "Category": "سلامتی و پزشکی",
        "Location": "شهدای غربی ",
        "City": "خرم آباد",
        "Province": "لرستان",
        "OfferPercent": 8,
        "MainImageUri": "/Content/ServiceImages/5585.jpg"
    },
    {
        "Id": 1858,
        "Title": "کیو مارکت ",
        "Category": "هایپر مارکت و سوپر مارکت ها",
        "Location": "دریاچه کیو ",
        "City": "خرم آباد",
        "Province": "لرستان",
        "OfferPercent": 4,
        "MainImageUri": "/Content/ServiceImages/5569.jpg"
    },
    {
        "Id": 1859,
        "Title": "پوشاک سیاوش",
        "Category": "فروشگاه و گالری",
        "Location": "خیابان شریعتی",
        "City": "دورود",
        "Province": "لرستان",
        "OfferPercent": 8,
        "MainImageUri": "/Content/ServiceImages/5584.jpg"
    },
    {
        "Id": 1860,
        "Title": "شال و روسری باما",
        "Category": "فروشگاه و گالری",
        "Location": "میدان فرمانداری ",
        "City": "دورود",
        "Province": "لرستان",
        "OfferPercent": 8,
        "MainImageUri": "/Content/ServiceImages/5590.jpg"
    },
    {
        "Id": 1861,
        "Title": "سنا چوب",
        "Category": "لوازم خانگی و کاربردی منزل",
        "Location": "خیابان نیما یوشیج ",
        "City": "بروجرد",
        "Province": "لرستان",
        "OfferPercent": 7.2,
        "MainImageUri": "/Content/ServiceImages/5645.jpg"
    },
    {
        "Id": 1862,
        "Title": "شیرینی مادر ",
        "Category": "قنادی - مرغ و گوشت و ماهی",
        "Location": "بلوار 60متری ",
        "City": "دورود",
        "Province": "لرستان",
        "OfferPercent": 5.6,
        "MainImageUri": "/Content/ServiceImages/5605.jpg"
    },
    {
        "Id": 1864,
        "Title": "مرکز زیبایی و گریم داماد آ.کات",
        "Category": "زیبایی و آرایشی",
        "Location": "خیابان تختی",
        "City": "بروجرد",
        "Province": "لرستان",
        "OfferPercent": 18.4,
        "MainImageUri": "/Content/ServiceImages/5642.jpg"
    },
    {
        "Id": 1865,
        "Title": "عینک زمرد ",
        "Category": "سلامتی و پزشکی",
        "Location": "خیابان حافظ جنوبی ",
        "City": "بروجرد",
        "Province": "لرستان",
        "OfferPercent": 12,
        "MainImageUri": "/Content/ServiceImages/5620.jpg"
    },
    {
        "Id": 1866,
        "Title": "کابینت مبنا",
        "Category": "ساختمان",
        "Location": "خیابان تختی ",
        "City": "بروجرد",
        "Province": "لرستان",
        "OfferPercent": 6.4,
        "MainImageUri": "/Content/ServiceImages/5625.jpg"
    },
    {
        "Id": 1867,
        "Title": "داروخانه",
        "Category": "سلامتی و پزشکی",
        "Location": "خیابان انقلاب ",
        "City": "خرم آباد",
        "Province": "لرستان",
        "OfferPercent": 4,
        "MainImageUri": "/Content/ServiceImages/5641.jpg"
    },
    {
        "Id": 1869,
        "Title": "مواد غذایی عابدی",
        "Category": "هایپر مارکت و سوپر مارکت ها",
        "Location": "شهر خفر",
        "City": "باب انار",
        "Province": "فارس",
        "OfferPercent": 12,
        "MainImageUri": "/Content/ServiceImages/5637.jpg"
    },
    {
        "Id": 1870,
        "Title": "لوازم جانبی موبایل ",
        "Category": "خدمات",
        "Location": "مطهری ",
        "City": "خرم آباد",
        "Province": "لرستان",
        "OfferPercent": 8,
        "MainImageUri": "/Content/ServiceImages/5662.jpg"
    },
    {
        "Id": 1871,
        "Title": "داروخانه دامپزشکی حاتمی",
        "Category": "سلامتی و پزشکی",
        "Location": "شهر خفر",
        "City": "باب انار",
        "Province": "فارس",
        "OfferPercent": 6.4,
        "MainImageUri": "/Content/ServiceImages/5847.jpg"
    },
    {
        "Id": 1872,
        "Title": "فروشگاه شهر آفتاب",
        "Category": "فروشگاه و گالری",
        "Location": "بلوار معلم ",
        "City": "دورود",
        "Province": "لرستان",
        "OfferPercent": 8,
        "MainImageUri": "/Content/ServiceImages/5769.jpg"
    },
    {
        "Id": 1889,
        "Title": "لوازم خانگی حیدری",
        "Category": "لوازم خانگی و کاربردی منزل",
        "Location": "بلوار معلم",
        "City": "دورود",
        "Province": "لرستان",
        "OfferPercent": 9.6,
        "MainImageUri": "/Content/ServiceImages/5776.jpg"
    },
    {
        "Id": 1879,
        "Title": "پوشاک خاتون",
        "Category": "فروشگاه و گالری",
        "Location": "خیابان شریعتی",
        "City": "دورود",
        "Province": "لرستان",
        "OfferPercent": 6.4,
        "MainImageUri": "/Content/ServiceImages/5675.jpg"
    },
    {
        "Id": 1881,
        "Title": "پرده سرای زرین",
        "Category": "لوازم خانگی و کاربردی منزل",
        "Location": "بلوار60متری ",
        "City": "دورود",
        "Province": "لرستان",
        "OfferPercent": 8,
        "MainImageUri": "/Content/ServiceImages/5684.jpg"
    },
    {
        "Id": 1883,
        "Title": "سیسمونی نگین بروجرد ",
        "Category": "فروشگاه و گالری",
        "Location": "خیابان تختی ",
        "City": "بروجرد",
        "Province": "لرستان",
        "OfferPercent": 8,
        "MainImageUri": "/Content/ServiceImages/5680.jpg"
    },
    {
        "Id": 1885,
        "Title": "سوپرمارکت بیست تک ",
        "Category": "هایپر مارکت و سوپر مارکت ها",
        "Location": "بلواربهشت",
        "City": "بروجرد",
        "Province": "لرستان",
        "OfferPercent": 4,
        "MainImageUri": "/Content/ServiceImages/5696.jpg"
    },
    {
        "Id": 1886,
        "Title": "پیتزا آسمون",
        "Category": "رستوران و فست فود و کافه و بستنی",
        "Location": "بلوار 60 متری",
        "City": "دورود",
        "Province": "لرستان",
        "OfferPercent": 5.6,
        "MainImageUri": "/Content/ServiceImages/5775.jpg"
    },
    {
        "Id": 1887,
        "Title": "آرایشی بهلولی",
        "Category": "زیبایی و آرایشی",
        "Location": "خیابان شریعتی",
        "City": "دورود",
        "Province": "لرستان",
        "OfferPercent": 9.6,
        "MainImageUri": "/Content/ServiceImages/5702.jpg"
    },
    {
        "Id": 1888,
        "Title": "پوشاک مکنزی",
        "Category": "فروشگاه و گالری",
        "Location": "بلوار معلم ",
        "City": "دورود",
        "Province": "لرستان",
        "OfferPercent": 7.2,
        "MainImageUri": "/Content/ServiceImages/5717.jpg"
    },
    {
        "Id": 1890,
        "Title": "گالری پرده امید3",
        "Category": "لوازم خانگی و کاربردی منزل",
        "Location": "خیابان باهنرشرقی",
        "City": "بروجرد",
        "Province": "لرستان",
        "OfferPercent": 6.4,
        "MainImageUri": "/Content/ServiceImages/5734.jpg"
    },
    {
        "Id": 1892,
        "Title": "خانه و آشپزخانه ایده آل",
        "Category": "لوازم خانگی و کاربردی منزل",
        "Location": "بلوار معلم ",
        "City": "دورود",
        "Province": "لرستان",
        "OfferPercent": 5.6,
        "MainImageUri": "/Content/ServiceImages/5744.jpg"
    },
    {
        "Id": 1897,
        "Title": "آرایشگاه مردانه ترندی ",
        "Category": "زیبایی و آرایشی",
        "Location": "خیابان تختی ",
        "City": "بروجرد",
        "Province": "لرستان",
        "OfferPercent": 18.4,
        "MainImageUri": "/Content/ServiceImages/5806.jpg"
    },
    {
        "Id": 1893,
        "Title": "نامبروان",
        "Category": "فروشگاه و گالری",
        "Location": "بلوار معلم",
        "City": "دورود",
        "Province": "لرستان",
        "OfferPercent": 6.4,
        "MainImageUri": "/Content/ServiceImages/5781.jpg"
    },
    {
        "Id": 1894,
        "Title": "مانتو فروشی پاسیونیس ",
        "Category": "فروشگاه و گالری",
        "Location": "شهدای شرقی",
        "City": "خرم آباد",
        "Province": "لرستان",
        "OfferPercent": 8,
        "MainImageUri": "/Content/ServiceImages/5778.jpg"
    },
    {
        "Id": 1902,
        "Title": "کافه باران",
        "Category": "رستوران و فست فود و کافه و بستنی",
        "Location": "بلوار معلم",
        "City": "دورود",
        "Province": "لرستان",
        "OfferPercent": 8,
        "MainImageUri": "/Content/ServiceImages/5879.jpg"
    },
    {
        "Id": 1904,
        "Title": "فروشگاه فرش سخاوت ",
        "Category": "فروشگاه و گالری",
        "Location": "خیابان علوی",
        "City": "خرم آباد",
        "Province": "لرستان",
        "OfferPercent": 5.6,
        "MainImageUri": "/Content/ServiceImages/5878.jpg"
    },
    {
        "Id": 1895,
        "Title": "مرکز خرید الماس خفر",
        "Category": "هایپر مارکت و سوپر مارکت ها",
        "Location": "شهر خفر",
        "City": "باب انار",
        "Province": "فارس",
        "OfferPercent": 8,
        "MainImageUri": "/Content/ServiceImages/5835.jpg"
    },
    {
        "Id": 1896,
        "Title": "پوشاک مردانه ست من ",
        "Category": "فروشگاه و گالری",
        "Location": "بین چهار راه بانک و میدان شهدا ",
        "City": "خرم آباد",
        "Province": "لرستان",
        "OfferPercent": 12.8,
        "MainImageUri": "/Content/ServiceImages/5831.jpg"
    },
    {
        "Id": 1898,
        "Title": "سووپر مارکت شمشیری",
        "Category": "هایپر مارکت و سوپر مارکت ها",
        "Location": "میدان شهدا ",
        "City": "بروجرد",
        "Province": "لرستان",
        "OfferPercent": 13.6,
        "MainImageUri": "/Content/ServiceImages/5830.jpg"
    },
    {
        "Id": 1899,
        "Title": "لوازم قنادی وانیل ",
        "Category": "رستوران و فست فود و کافه و بستنی",
        "Location": "بلوار گلستان ",
        "City": "بروجرد",
        "Province": "لرستان",
        "OfferPercent": 12,
        "MainImageUri": "/Content/ServiceImages/5828.jpg"
    },
    {
        "Id": 1900,
        "Title": "فست فود پیاده رو ",
        "Category": "رستوران و فست فود و کافه و بستنی",
        "Location": "خیابان نیما یوشیج ",
        "City": "بروجرد",
        "Province": "لرستان",
        "OfferPercent": 8,
        "MainImageUri": "/Content/ServiceImages/5827.jpg"
    },
    {
        "Id": 1909,
        "Title": "مبل ایران",
        "Category": "لوازم خانگی و کاربردی منزل",
        "Location": "خیابان کمربندی",
        "City": "دورود",
        "Province": "لرستان",
        "OfferPercent": 7.2,
        "MainImageUri": "/Content/ServiceImages/5892.jpg"
    },
    {
        "Id": 1905,
        "Title": "لوازم خانگی عمران ",
        "Category": "لوازم خانگی و کاربردی منزل",
        "Location": "خیابان شریعتی",
        "City": "دورود",
        "Province": "لرستان",
        "OfferPercent": 4,
        "MainImageUri": "/Content/ServiceImages/5877.jpg"
    },
    {
        "Id": 1908,
        "Title": "لوازم خانگی محسن",
        "Category": "لوازم خانگی و کاربردی منزل",
        "Location": "بلوار معلم",
        "City": "دورود",
        "Province": "لرستان",
        "OfferPercent": 9.6,
        "MainImageUri": "/Content/ServiceImages/5940.jpg"
    },
    {
        "Id": 1906,
        "Title": "آرایشی ویترین",
        "Category": "زیبایی و آرایشی",
        "Location": "خیابان شریعتی",
        "City": "دورود",
        "Province": "لرستان",
        "OfferPercent": 9.6,
        "MainImageUri": "/Content/ServiceImages/5869.jpg"
    },
    {
        "Id": 1907,
        "Title": "کفش اسپرت امید",
        "Category": "فروشگاه و گالری",
        "Location": "خیابان راه آهن",
        "City": "دورود",
        "Province": "لرستان",
        "OfferPercent": 8,
        "MainImageUri": "/Content/ServiceImages/5874.jpg"
    },
    {
        "Id": 1962,
        "Title": "هماهنگی پیش از مراجعه ",
        "Category": "فروشگاه و گالری",
        "Location": "ایمان شمالی ",
        "City": "شیراز",
        "Province": "فارس",
        "OfferPercent": 4,
        "MainImageUri": "/Content/ServiceImages/8332.jpg"
    },
    {
        "Id": 1912,
        "Title": "نان سنگک خوشه",
        "Category": "خدمات",
        "Location": "شهر خفر",
        "City": "باب انار",
        "Province": "فارس",
        "OfferPercent": 5.6,
        "MainImageUri": "/Content/ServiceImages/5938.jpg"
    },
    {
        "Id": 1913,
        "Title": "طلا فروشی ناب",
        "Category": "طلا و نقره و بدلیجات",
        "Location": "شهر خفر",
        "City": "باب انار",
        "Province": "فارس",
        "OfferPercent": 2.4,
        "MainImageUri": "/Content/ServiceImages/5928.jpg"
    },
    {
        "Id": 1914,
        "Title": "باشگاه بدنسازی مرداد ",
        "Category": "ورزشی و تفریحی",
        "Location": "بلوار گلستان ",
        "City": "بروجرد",
        "Province": "لرستان",
        "OfferPercent": 16,
        "MainImageUri": "/Content/ServiceImages/5936.jpg"
    },
    {
        "Id": 1919,
        "Title": "تزیینات رویایی",
        "Category": "لوازم خانگی و کاربردی منزل",
        "Location": "بلوار معلم",
        "City": "دورود",
        "Province": "لرستان",
        "OfferPercent": 8,
        "MainImageUri": "/Content/ServiceImages/5962.jpg"
    },
    {
        "Id": 1915,
        "Title": "رستوران بلوط ",
        "Category": "رستوران و فست فود و کافه و بستنی",
        "Location": "خیابان انقلاب نرسیده به سه راه کورش ",
        "City": "خرم آباد",
        "Province": "لرستان",
        "OfferPercent": 8,
        "MainImageUri": "/Content/ServiceImages/5976.jpg"
    },
    {
        "Id": 1916,
        "Title": "پوشاک قصر کودک",
        "Category": "فروشگاه و گالری",
        "Location": "باب انار",
        "City": "باب انار",
        "Province": "فارس",
        "OfferPercent": 12,
        "MainImageUri": "/Content/ServiceImages/5977.jpg"
    },
    {
        "Id": 1920,
        "Title": "کافه فست فود رویال ",
        "Category": "رستوران و فست فود و کافه و بستنی",
        "Location": "بین میدان شهدا و چهارراه فرهنگ ",
        "City": "خرم آباد",
        "Province": "لرستان",
        "OfferPercent": 8,
        "MainImageUri": "/Content/ServiceImages/5978.jpg"
    },
    {
        "Id": 1918,
        "Title": "آتلیه شروین",
        "Category": "خدمات",
        "Location": "بلوار معلم",
        "City": "دورود",
        "Province": "لرستان",
        "OfferPercent": 16,
        "MainImageUri": "/Content/ServiceImages/6008.jpg"
    },
    {
        "Id": 1921,
        "Title": "رستوران و کله پزی بزرگ شهر ",
        "Category": "رستوران و فست فود و کافه و بستنی",
        "Location": "شمشیر آباد خیابان شریعتی ",
        "City": "خرم آباد",
        "Province": "لرستان",
        "OfferPercent": 8,
        "MainImageUri": "/Content/ServiceImages/5975.jpg"
    },
    {
        "Id": 1922,
        "Title": "عینک چلسی",
        "Category": "سلامتی و پزشکی",
        "Location": "خیابان شریعتی",
        "City": "دورود",
        "Province": "لرستان",
        "OfferPercent": 12,
        "MainImageUri": "/Content/ServiceImages/5981.jpg"
    },
    {
        "Id": 1923,
        "Title": "آتلیه مهرماندگار",
        "Category": "خدمات",
        "Location": "خیابان شریعتی",
        "City": "دورود",
        "Province": "لرستان",
        "OfferPercent": 16,
        "MainImageUri": "/Content/ServiceImages/5986.jpg"
    },
    {
        "Id": 1924,
        "Title": "لوازم خانگی غزال 2",
        "Category": "لوازم خانگی و کاربردی منزل",
        "Location": "خیابان شریعتی",
        "City": "دورود",
        "Province": "لرستان",
        "OfferPercent": 4,
        "MainImageUri": "/Content/ServiceImages/5989.jpg"
    },
    {
        "Id": 1925,
        "Title": "لوازم خانگی غزال 3",
        "Category": "لوازم خانگی و کاربردی منزل",
        "Location": "خیابان شریعتی",
        "City": "دورود",
        "Province": "لرستان",
        "OfferPercent": 5.6,
        "MainImageUri": "/Content/ServiceImages/6002.jpg"
    },
    {
        "Id": 1926,
        "Title": "دکتر بیلدینگ ",
        "Category": "ساختمان",
        "Location": "خیابان تختی ",
        "City": "بروجرد",
        "Province": "لرستان",
        "OfferPercent": 8,
        "MainImageUri": "/Content/ServiceImages/6013.jpg"
    },
    {
        "Id": 1927,
        "Title": "طلا فروشی معظمی",
        "Category": "طلا و نقره و بدلیجات",
        "Location": "پاساژ یاقوت ",
        "City": "بروجرد",
        "Province": "لرستان",
        "OfferPercent": 3.2,
        "MainImageUri": "/Content/ServiceImages/6018.jpg"
    },
    {
        "Id": 1930,
        "Title": "رستوران دریایی قزل پارک",
        "Category": "رستوران و فست فود و کافه و بستنی",
        "Location": "دریاچه کیو",
        "City": "خرم آباد",
        "Province": "لرستان",
        "OfferPercent": 8,
        "MainImageUri": "/Content/ServiceImages/6066.jpg"
    },
    {
        "Id": 1931,
        "Title": "سالن ارایشی عسل بانو ",
        "Category": "زیبایی و آرایشی",
        "Location": "خیابان انقلاب",
        "City": "خرم آباد",
        "Province": "لرستان",
        "OfferPercent": 24,
        "MainImageUri": "/Content/ServiceImages/6052.jpg"
    },
    {
        "Id": 1933,
        "Title": "عینک فارابی ",
        "Category": "سلامتی و پزشکی",
        "Location": "بلوار 60 متری ",
        "City": "دورود",
        "Province": "لرستان",
        "OfferPercent": 10.4,
        "MainImageUri": "/Content/ServiceImages/6070.jpg"
    },
    {
        "Id": 1934,
        "Title": "شیرینی سرای کندو ",
        "Category": "آجیل و خشکبار - شیرینی فروشی",
        "Location": "خیابان جعفری ",
        "City": "بروجرد",
        "Province": "لرستان",
        "OfferPercent": 8,
        "MainImageUri": "/Content/ServiceImages/6073.jpg"
    },
    {
        "Id": 1935,
        "Title": "دندانپزشکی دکتر صارمیان",
        "Category": "سلامتی و پزشکی",
        "Location": "خیابان تختی",
        "City": "بروجرد",
        "Province": "لرستان",
        "OfferPercent": 16,
        "MainImageUri": "/Content/ServiceImages/6082.jpg"
    },
    {
        "Id": 1936,
        "Title": "اموزشگاه عملی رسا ",
        "Category": "آموزشی",
        "Location": "خیابان تختی ",
        "City": "بروجرد",
        "Province": "لرستان",
        "OfferPercent": 8,
        "MainImageUri": "/Content/ServiceImages/6083.jpg"
    },
    {
        "Id": 1937,
        "Title": "طلای تشریفات",
        "Category": "طلا و نقره و بدلیجات",
        "Location": "خیابان شریعتی ",
        "City": "دورود",
        "Province": "لرستان",
        "OfferPercent": 2.4,
        "MainImageUri": "/Content/ServiceImages/6113.jpg"
    },
    {
        "Id": 1938,
        "Title": "نفس کلاب",
        "Category": "ورزشی و تفریحی",
        "Location": "شهرک گلستان",
        "City": "شیراز",
        "Province": "فارس",
        "OfferPercent": 12,
        "MainImageUri": "/Content/ServiceImages/6185.jpg"
    },
    {
        "Id": 1940,
        "Title": "آقای شکلات ",
        "Category": "رستوران و فست فود و کافه و بستنی",
        "Location": "بلوار 60 متری ",
        "City": "دورود",
        "Province": "لرستان",
        "OfferPercent": 9.6,
        "MainImageUri": "/Content/ServiceImages/6117.jpg"
    },
    {
        "Id": 1943,
        "Title": "رستوران ورُنا",
        "Category": "رستوران و فست فود و کافه و بستنی",
        "Location": "چهارراه رنگین کمان ",
        "City": "خرم آباد",
        "Province": "لرستان",
        "OfferPercent": 7.2,
        "MainImageUri": "/Content/ServiceImages/6141.jpg"
    },
    {
        "Id": 1944,
        "Title": "سوپر مارکت پارسیس ",
        "Category": "هایپر مارکت و سوپر مارکت ها",
        "Location": "خیابان مطهری رو به روی هتل رنگین کمان ",
        "City": "خرم آباد",
        "Province": "لرستان",
        "OfferPercent": 8,
        "MainImageUri": "/Content/ServiceImages/6148.jpg"
    },
    {
        "Id": 1945,
        "Title": "کاراکو",
        "Category": "فروشگاه و گالری",
        "Location": "بلوار معلم",
        "City": "دورود",
        "Province": "لرستان",
        "OfferPercent": 6.4,
        "MainImageUri": "/Content/ServiceImages/6150.jpg"
    },
    {
        "Id": 1949,
        "Title": "پوشاک زنانه زیگزاگ ",
        "Category": "فروشگاه و گالری",
        "Location": "خیابان شریعتی ",
        "City": "دورود",
        "Province": "لرستان",
        "OfferPercent": 9.6,
        "MainImageUri": "/Content/ServiceImages/6170.jpg"
    },
    {
        "Id": 1950,
        "Title": "آبمیوه و بستنی جودکی ",
        "Category": "رستوران و فست فود و کافه و بستنی",
        "Location": "شهدای شرقی",
        "City": "خرم آباد",
        "Province": "لرستان",
        "OfferPercent": 4,
        "MainImageUri": "/Content/ServiceImages/6191.jpg"
    },
    {
        "Id": 1951,
        "Title": "رستوران پدر سالار ",
        "Category": "رستوران و فست فود و کافه و بستنی",
        "Location": "خیابان ایت الاه کاشانی ",
        "City": "بروجرد",
        "Province": "لرستان",
        "OfferPercent": 8,
        "MainImageUri": "/Content/ServiceImages/6186.jpg"
    },
    {
        "Id": 1953,
        "Title": "رستوران گل گندم",
        "Category": "رستوران و فست فود و کافه و بستنی",
        "Location": "بلوار الغدیر",
        "City": "دورود",
        "Province": "لرستان",
        "OfferPercent": 8,
        "MainImageUri": "/Content/ServiceImages/6198.jpg"
    },
    {
        "Id": 1970,
        "Title": "سالن ارایشی ملورین",
        "Category": "زیبایی و آرایشی",
        "Location": "خیابان انقلاب",
        "City": "خرم آباد",
        "Province": "لرستان",
        "OfferPercent": 28.8,
        "MainImageUri": "/Content/ServiceImages/6333.jpg"
    },
    {
        "Id": 1954,
        "Title": "پوشاک زیتون دبی",
        "Category": "فروشگاه و گالری",
        "Location": "خیابان شریعتی",
        "City": "دورود",
        "Province": "لرستان",
        "OfferPercent": 6.4,
        "MainImageUri": "/Content/ServiceImages/6204.jpg"
    },
    {
        "Id": 1957,
        "Title": "انواع لاستیک های ایرانی و خارجی و رینگ اسپرت شرکتی",
        "Category": "خدمات اتومبیل",
        "Location": "بلوار ایت الله بروجردی",
        "City": "دورود",
        "Province": "لرستان",
        "OfferPercent": 4,
        "MainImageUri": "/Content/ServiceImages/6223.jpg"
    },
    {
        "Id": 1956,
        "Title": "تعویض روغنی آنتیک",
        "Category": "خدمات اتومبیل",
        "Location": "بلوار آیت الله بروجردی ",
        "City": "دورود",
        "Province": "لرستان",
        "OfferPercent": 4,
        "MainImageUri": "/Content/ServiceImages/6225.jpg"
    },
    {
        "Id": 1958,
        "Title": "بیلیارد و گیم نت آس  ",
        "Category": "ورزشی و تفریحی",
        "Location": "کاشانی",
        "City": "بروجرد",
        "Province": "لرستان",
        "OfferPercent": 13.6,
        "MainImageUri": "/Content/ServiceImages/6227.jpg"
    },
    {
        "Id": 1959,
        "Title": "کارواش نانوبخار آبرنگ",
        "Category": "خدمات اتومبیل",
        "Location": "بلوار آیت الله بروجردی ",
        "City": "دورود",
        "Province": "لرستان",
        "OfferPercent": 8,
        "MainImageUri": "/Content/ServiceImages/6248.jpg"
    },
    {
        "Id": 1961,
        "Title": "سالن زیبایی مهستان",
        "Category": "زیبایی و آرایشی",
        "Location": "بلوار معلم",
        "City": "دورود",
        "Province": "لرستان",
        "OfferPercent": 8,
        "MainImageUri": "/Content/ServiceImages/6242.jpg"
    },
    {
        "Id": 1963,
        "Title": "سالن زیبایی آینه ممنوع",
        "Category": "زیبایی و آرایشی",
        "Location": "خیابان پدافند ",
        "City": "بروجرد",
        "Province": "لرستان",
        "OfferPercent": 12,
        "MainImageUri": "/Content/ServiceImages/6295.jpg"
    },
    {
        "Id": 1964,
        "Title": "دندانپزشکی لبخند",
        "Category": "سلامتی و پزشکی",
        "Location": "میدان فرمانداری",
        "City": "دورود",
        "Province": "لرستان",
        "OfferPercent": 9.6,
        "MainImageUri": "/Content/ServiceImages/6310.jpg"
    },
    {
        "Id": 1965,
        "Title": "هایپر مارکت هخامنش",
        "Category": "هایپر مارکت و سوپر مارکت ها",
        "Location": "خیابان بیمارستان",
        "City": "برازجان",
        "Province": "بوشهر",
        "OfferPercent": 8,
        "MainImageUri": "/Content/ServiceImages/6302.jpg"
    },
    {
        "Id": 1966,
        "Title": "کبابی دلنشین ",
        "Category": "رستوران و فست فود و کافه و بستنی",
        "Location": "خیابان انقلاب ",
        "City": "خرم آباد",
        "Province": "لرستان",
        "OfferPercent": 4,
        "MainImageUri": "/Content/ServiceImages/6331.jpg"
    },
    {
        "Id": 1967,
        "Title": "مبلمان و لوستر تشریفات",
        "Category": "لوازم خانگی و کاربردی منزل",
        "Location": "بلوار معلم",
        "City": "دورود",
        "Province": "لرستان",
        "OfferPercent": 4.8,
        "MainImageUri": "/Content/ServiceImages/6314.jpg"
    },
    {
        "Id": 1968,
        "Title": " سفره خانه سنتی تژگاه ",
        "Category": "رستوران و فست فود و کافه و بستنی",
        "Location": "خیابان انقلاب",
        "City": "خرم آباد",
        "Province": "لرستان",
        "OfferPercent": 8,
        "MainImageUri": "/Content/ServiceImages/6330.jpg"
    },
    {
        "Id": 1969,
        "Title": "میوه و تره بار سیاه منصور ",
        "Category": "فروشگاه و گالری",
        "Location": "خیابان انقلاب ",
        "City": "خرم آباد",
        "Province": "لرستان",
        "OfferPercent": 4,
        "MainImageUri": "/Content/ServiceImages/6329.jpg"
    },
    {
        "Id": 1972,
        "Title": "آرایشگاه چکاوک ",
        "Category": "زیبایی و آرایشی",
        "Location": "شهرک حافظ ",
        "City": "شیراز",
        "Province": "فارس",
        "OfferPercent": 19.2,
        "MainImageUri": "/Content/ServiceImages/6360.jpg"
    },
    {
        "Id": 1973,
        "Title": "گیم کلوپ ",
        "Category": "خدمات",
        "Location": "خیابان مطهری ",
        "City": "خرم آباد",
        "Province": "لرستان",
        "OfferPercent": 8,
        "MainImageUri": "/Content/ServiceImages/6347.jpg"
    },
    {
        "Id": 1974,
        "Title": "لوازم خانگی فرهاد",
        "Category": "لوازم خانگی و کاربردی منزل",
        "Location": "بلوار معلم",
        "City": "دورود",
        "Province": "لرستان",
        "OfferPercent": 5.6,
        "MainImageUri": "/Content/ServiceImages/6362.jpg"
    },
    {
        "Id": 1975,
        "Title": "بیلیارد بانوان بارانا",
        "Category": "ورزشی و تفریحی",
        "Location": "امیر کبیر ",
        "City": "بروجرد",
        "Province": "لرستان",
        "OfferPercent": 16,
        "MainImageUri": "/Content/ServiceImages/6458.jpg"
    },
    {
        "Id": 1982,
        "Title": "مرغ تک شیراز",
        "Category": "قنادی - مرغ و گوشت و ماهی",
        "Location": "شهر خفر",
        "City": "باب انار",
        "Province": "فارس",
        "OfferPercent": 8,
        "MainImageUri": "/Content/ServiceImages/6391.jpg"
    },
    {
        "Id": 1983,
        "Title": "پوشاک اسپرت نازلی",
        "Category": "فروشگاه و گالری",
        "Location": "بلوار معلم",
        "City": "دورود",
        "Province": "لرستان",
        "OfferPercent": 8,
        "MainImageUri": "/Content/ServiceImages/6395.jpg"
    },
    {
        "Id": 1985,
        "Title": "لباس مجلسی و لوازم ارایشی و لباس زیر زنانه",
        "Category": "فروشگاه و گالری",
        "Location": "چهار راه بانک ",
        "City": "خرم آباد",
        "Province": "لرستان",
        "OfferPercent": 8,
        "MainImageUri": "/Content/ServiceImages/6410.jpg"
    },
    {
        "Id": 1987,
        "Title": "داروخانه دکترایمانی ",
        "Category": "سلامتی و پزشکی",
        "Location": "میدان فرمانداری",
        "City": "دورود",
        "Province": "لرستان",
        "OfferPercent": 3.2,
        "MainImageUri": "/Content/ServiceImages/6480.jpg"
    },
    {
        "Id": 1988,
        "Title": "باشگاه مو آقایان",
        "Category": "زیبایی و آرایشی",
        "Location": "بلوار 60 متری ",
        "City": "دورود",
        "Province": "لرستان",
        "OfferPercent": 16,
        "MainImageUri": "/Content/ServiceImages/6422.jpg"
    },
    {
        "Id": 1989,
        "Title": "تهیه غذای یکی یدونه",
        "Category": "رستوران و فست فود و کافه و بستنی",
        "Location": "بلوار 60 متری ",
        "City": "دورود",
        "Province": "لرستان",
        "OfferPercent": 4,
        "MainImageUri": "/Content/ServiceImages/6427.jpg"
    },
    {
        "Id": 1990,
        "Title": "ماهی پزی سنتی",
        "Category": "رستوران و فست فود و کافه و بستنی",
        "Location": "بلوار بعثت",
        "City": "شیراز",
        "Province": "فارس",
        "OfferPercent": 9.6,
        "MainImageUri": "/Content/ServiceImages/6430.jpg"
    },
    {
        "Id": 1991,
        "Title": "تجهیزات پزشکی ابن سینا",
        "Category": "فروشگاه و گالری",
        "Location": "بلوار60 متری",
        "City": "دورود",
        "Province": "لرستان",
        "OfferPercent": 7.2,
        "MainImageUri": "/Content/ServiceImages/6443.jpg"
    },
    {
        "Id": 1996,
        "Title": "دفتر وکالت ",
        "Category": "خدمات",
        "Location": "خیابان شهدا ",
        "City": "بروجرد",
        "Province": "لرستان",
        "OfferPercent": 12,
        "MainImageUri": "/Content/ServiceImages/6468.jpg"
    },
    {
        "Id": 1997,
        "Title": "سبزیجات اصالت ",
        "Category": "فروشگاه و گالری",
        "Location": "میدان صفا",
        "City": "بروجرد",
        "Province": "لرستان",
        "OfferPercent": 9.6,
        "MainImageUri": "/Content/ServiceImages/6472.jpg"
    },
    {
        "Id": 1998,
        "Title": "رستوران و سفره خانه سنتی کوهسار",
        "Category": "رستوران و فست فود و کافه و بستنی",
        "Location": "پارک جنگلی",
        "City": "دورود",
        "Province": "لرستان",
        "OfferPercent": 9.6,
        "MainImageUri": "/Content/ServiceImages/6485.jpg"
    },
    {
        "Id": 1999,
        "Title": "فروشگاه صالح ",
        "Category": "هایپر مارکت و سوپر مارکت ها",
        "Location": "خیابان کندوان",
        "City": "دورود",
        "Province": "لرستان",
        "OfferPercent": 2.4,
        "MainImageUri": "/Content/ServiceImages/6494.jpg"
    },
    {
        "Id": 2001,
        "Title": "کت و شلوار پایتخت ",
        "Category": "فروشگاه و گالری",
        "Location": "خیابان گل سرخی ",
        "City": "بروجرد",
        "Province": "لرستان",
        "OfferPercent": 4,
        "MainImageUri": "/Content/ServiceImages/6507.jpg"
    },
    {
        "Id": 2002,
        "Title": "بوتیک آف لاین",
        "Category": "فروشگاه و گالری",
        "Location": "خیابان مطهری",
        "City": "خرم آباد",
        "Province": "لرستان",
        "OfferPercent": 8,
        "MainImageUri": "/Content/ServiceImages/6497.jpg"
    },
    {
        "Id": 2003,
        "Title": "تعميرگاه موتورسيكلت بهادر",
        "Category": "خدمات اتومبیل",
        "Location": "خيابان اصلى",
        "City": "چغادک",
        "Province": "بوشهر",
        "OfferPercent": 16,
        "MainImageUri": "/Content/ServiceImages/6546.jpg"
    },
    {
        "Id": 2005,
        "Title": "پوشاک مکس",
        "Category": "فروشگاه و گالری",
        "Location": "میدان فرمانداری",
        "City": "دورود",
        "Province": "لرستان",
        "OfferPercent": 8,
        "MainImageUri": "/Content/ServiceImages/6511.jpg"
    },
    {
        "Id": 2006,
        "Title": "آریا دکور",
        "Category": "ساختمان",
        "Location": "خیابان پدافند ",
        "City": "بروجرد",
        "Province": "لرستان",
        "OfferPercent": 8,
        "MainImageUri": "/Content/ServiceImages/6514.jpg"
    },
    {
        "Id": 2007,
        "Title": "تاسیسات کولاک",
        "Category": "خدمات",
        "Location": "بلوار الغدیر خیام شرقی",
        "City": "دورود",
        "Province": "لرستان",
        "OfferPercent": 8,
        "MainImageUri": "/Content/ServiceImages/6545.jpg"
    },
    {
        "Id": 2009,
        "Title": "کباب همایون",
        "Category": "رستوران و فست فود و کافه و بستنی",
        "Location": "بلوار الغدیر",
        "City": "دورود",
        "Province": "لرستان",
        "OfferPercent": 8,
        "MainImageUri": "/Content/ServiceImages/7698.jpg"
    },
    {
        "Id": 2010,
        "Title": "ارایشگاه مردانه آی سن",
        "Category": "زیبایی و آرایشی",
        "Location": "خیابان پدافند ",
        "City": "بروجرد",
        "Province": "لرستان",
        "OfferPercent": 16,
        "MainImageUri": "/Content/ServiceImages/6571.jpg"
    },
    {
        "Id": 2011,
        "Title": "قنادی باغ شیرین شعبه اول ",
        "Category": "رستوران و فست فود و کافه و بستنی",
        "Location": "قاضی آباد شعبه مرکزی ",
        "City": "خرم آباد",
        "Province": "لرستان",
        "OfferPercent": 9.6,
        "MainImageUri": "/Content/ServiceImages/6610.jpg"
    },
    {
        "Id": 2012,
        "Title": "لوازم بهداشتی ساختمانی میانرودی",
        "Category": "ساختمان",
        "Location": "بلوار شهرداری",
        "City": "بروجرد",
        "Province": "لرستان",
        "OfferPercent": 8,
        "MainImageUri": "/Content/ServiceImages/6560.jpg"
    },
    {
        "Id": 2013,
        "Title": "شلوار زنانه مرادی",
        "Category": "فروشگاه و گالری",
        "Location": "پاساژ پردیس",
        "City": "دورود",
        "Province": "لرستان",
        "OfferPercent": 6.4,
        "MainImageUri": "/Content/ServiceImages/6565.jpg"
    },
    {
        "Id": 2014,
        "Title": "پوشاک بچه گانه هورا",
        "Category": "فروشگاه و گالری",
        "Location": "پاساژ پردیس",
        "City": "دورود",
        "Province": "لرستان",
        "OfferPercent": 8,
        "MainImageUri": "/Content/ServiceImages/6568.jpg"
    },
    {
        "Id": 2018,
        "Title": "پرده سرای ابریشم",
        "Category": "لوازم خانگی و کاربردی منزل",
        "Location": "بازار روز ",
        "City": "دورود",
        "Province": "لرستان",
        "OfferPercent": 8,
        "MainImageUri": "/Content/ServiceImages/6661.jpg"
    },
    {
        "Id": 2022,
        "Title": "کبابی ساطوری بناب آذربایجان ",
        "Category": "رستوران و فست فود و کافه و بستنی",
        "Location": "خیابان بعثت ",
        "City": "خرم آباد",
        "Province": "لرستان",
        "OfferPercent": 8,
        "MainImageUri": "/Content/ServiceImages/6605.jpg"
    },
    {
        "Id": 2025,
        "Title": "فروشگاه شیرین عسل ",
        "Category": "فروشگاه و گالری",
        "Location": "خیابان ساحلی مطهری ",
        "City": "خرم آباد",
        "Province": "لرستان",
        "OfferPercent": 4,
        "MainImageUri": "/Content/ServiceImages/6668.jpg"
    },
    {
        "Id": 2026,
        "Title": "دوچرخه شهریار",
        "Category": "فروشگاه و گالری",
        "Location": "بلوار الغدیر",
        "City": "دورود",
        "Province": "لرستان",
        "OfferPercent": 6.4,
        "MainImageUri": "/Content/ServiceImages/6631.jpg"
    },
    {
        "Id": 2027,
        "Title": "پیتزا مکث ",
        "Category": "رستوران و فست فود و کافه و بستنی",
        "Location": "خیابان ساحلی نبش میدان نیلوفر ",
        "City": "خرم آباد",
        "Province": "لرستان",
        "OfferPercent": 8,
        "MainImageUri": "/Content/ServiceImages/6669.jpg"
    },
    {
        "Id": 2031,
        "Title": "کلاه فروشی باراتا",
        "Category": "فروشگاه و گالری",
        "Location": "چهار راه رنگین کمان مطهری",
        "City": "خرم آباد",
        "Province": "لرستان",
        "OfferPercent": 8,
        "MainImageUri": "/Content/ServiceImages/6658.jpg"
    },
    {
        "Id": 2033,
        "Title": "فروشگاه کشاورزی مهر خفر",
        "Category": "خدمات",
        "Location": "باب انار",
        "City": "باب انار",
        "Province": "فارس",
        "OfferPercent": 12,
        "MainImageUri": "/Content/ServiceImages/6675.jpg"
    },
    {
        "Id": 2034,
        "Title": "رستوران بین المللی ناپولی ",
        "Category": "رستوران و فست فود و کافه و بستنی",
        "Location": "خیابان دلفان ",
        "City": "خرم آباد",
        "Province": "لرستان",
        "OfferPercent": 8,
        "MainImageUri": "/Content/ServiceImages/7697.jpg"
    },
    {
        "Id": 2036,
        "Title": "بوتیک لرمد ",
        "Category": "فروشگاه و گالری",
        "Location": "خیابان شریعتی ",
        "City": "دورود",
        "Province": "لرستان",
        "OfferPercent": 8,
        "MainImageUri": "/Content/ServiceImages/7799.jpg"
    },
    {
        "Id": 3036,
        "Title": "هتل 3 ستاره و رستوران ایران زمین ",
        "Category": "هتل و سفر",
        "Location": "میدان ابوالفضل",
        "City": "دورود",
        "Province": "لرستان",
        "OfferPercent": 12,
        "MainImageUri": "/Content/ServiceImages/7687.jpg"
    },
    {
        "Id": 3037,
        "Title": "آتلیه تخصصی مادر و کودک بامبینو ",
        "Category": "خدمات",
        "Location": "باغشاه",
        "City": "شیراز",
        "Province": "فارس",
        "OfferPercent": 20,
        "MainImageUri": "/Content/ServiceImages/7754.jpg"
    },
    {
        "Id": 3039,
        "Title": "کافه بامداد ",
        "Category": "رستوران و فست فود و کافه و بستنی",
        "Location": "خیابان ساحلی مطهری نرسیده به پل انقلاب ",
        "City": "خرم آباد",
        "Province": "لرستان",
        "OfferPercent": 8,
        "MainImageUri": "/Content/ServiceImages/7721.jpg"
    },
    {
        "Id": 3038,
        "Title": "عکاسی عرفان",
        "Category": "خدمات",
        "Location": "باب انار",
        "City": "باب انار",
        "Province": "فارس",
        "OfferPercent": 11.2,
        "MainImageUri": "/Content/ServiceImages/7712.jpg"
    },
    {
        "Id": 3040,
        "Title": "خدمات کامپیوتری فناوران",
        "Category": "خدمات",
        "Location": "باب انار",
        "City": "باب انار",
        "Province": "فارس",
        "OfferPercent": 8,
        "MainImageUri": "/Content/ServiceImages/7723.jpg"
    },
    {
        "Id": 3048,
        "Title": "نمایندگی جی ایکس",
        "Category": "فروشگاه و گالری",
        "Location": "میدان امام کوچه نیما ",
        "City": "خرم آباد",
        "Province": "لرستان",
        "OfferPercent": 16,
        "MainImageUri": "/Content/ServiceImages/7764.jpg"
    },
    {
        "Id": 3041,
        "Title": " کت و شلوارعالی مقام ",
        "Category": "فروشگاه و گالری",
        "Location": "خیابان انقلاب مجتمع تجاری بعث مال ",
        "City": "خرم آباد",
        "Province": "لرستان",
        "OfferPercent": 12,
        "MainImageUri": "/Content/ServiceImages/7728.jpg"
    },
    {
        "Id": 3046,
        "Title": "طب سنتی بو علی ",
        "Category": "سلامتی و پزشکی",
        "Location": "خیابان علوی ",
        "City": "خرم آباد",
        "Province": "لرستان",
        "OfferPercent": 8,
        "MainImageUri": "/Content/ServiceImages/7786.jpg"
    },
    {
        "Id": 3042,
        "Title": "ایماژ",
        "Category": "ساختمان",
        "Location": "خیابان رازی",
        "City": "خرم آباد",
        "Province": "لرستان",
        "OfferPercent": 9.6,
        "MainImageUri": "/Content/ServiceImages/7736.jpg"
    },
    {
        "Id": 3043,
        "Title": "رستوران دیار ",
        "Category": "رستوران و فست فود و کافه و بستنی",
        "Location": "کیلومتر 3جاده الشتر رو به روی مسکن مهر رستوران دیار",
        "City": "خرم آباد",
        "Province": "لرستان",
        "OfferPercent": 8,
        "MainImageUri": "/Content/ServiceImages/7739.jpg"
    },
    {
        "Id": 3045,
        "Title": "دکوراسیون مجریان برتر ",
        "Category": "ساختمان",
        "Location": "خیابان حافظ جنوبی ",
        "City": "بروجرد",
        "Province": "لرستان",
        "OfferPercent": 12,
        "MainImageUri": "/Content/ServiceImages/7747.jpg"
    },
    {
        "Id": 3049,
        "Title": "آکادمی بدنسازی زوپیر( پاور من )",
        "Category": "ورزشی و تفریحی",
        "Location": "خیابان معرفت ",
        "City": "خرم آباد",
        "Province": "لرستان",
        "OfferPercent": 4,
        "MainImageUri": "/Content/ServiceImages/7830.jpg"
    },
    {
        "Id": 3050,
        "Title": "آبمیوه فروشی ویتامینه هیرمان ",
        "Category": "رستوران و فست فود و کافه و بستنی",
        "Location": "کوی جهادگران ",
        "City": "خرم آباد",
        "Province": "لرستان",
        "OfferPercent": 4,
        "MainImageUri": "/Content/ServiceImages/7829.jpg"
    },
    {
        "Id": 3052,
        "Title": "روسری سرا آیناز",
        "Category": "فروشگاه و گالری",
        "Location": "پاساژ پردیس ",
        "City": "دورود",
        "Province": "لرستان",
        "OfferPercent": 8,
        "MainImageUri": "/Content/ServiceImages/7790.jpg"
    },
    {
        "Id": 3053,
        "Title": "پوشاک زنانه  آنتیک ",
        "Category": "فروشگاه و گالری",
        "Location": "پاساژ پردیس ",
        "City": "دورود",
        "Province": "لرستان",
        "OfferPercent": 6.4,
        "MainImageUri": "/Content/ServiceImages/7796.jpg"
    },
    {
        "Id": 3054,
        "Title": "محصولات بهداشتی پرمیس ",
        "Category": "فروشگاه عمده فروشی",
        "Location": "یادبود ",
        "City": "بروجرد",
        "Province": "لرستان",
        "OfferPercent": 8,
        "MainImageUri": "/Content/ServiceImages/7803.jpg"
    },
    {
        "Id": 3055,
        "Title": "مرکز آموزش و بازی انرژی",
        "Category": "آموزشی",
        "Location": "میدان معلم",
        "City": "شیراز",
        "Province": "فارس",
        "OfferPercent": 16,
        "MainImageUri": "/Content/ServiceImages/7805.jpg"
    },
    {
        "Id": 3057,
        "Title": "مرکز تخصصی بازی کودکان و نوجوانان",
        "Category": "آموزشی",
        "Location": "میدان معلم",
        "City": "شیراز",
        "Province": "فارس",
        "OfferPercent": 16,
        "MainImageUri": "/Content/ServiceImages/7832.jpg"
    },
    {
        "Id": 3059,
        "Title": "لوازم خانگی آب روشن ",
        "Category": "لوازم خانگی و کاربردی منزل",
        "Location": "خیابان انقلاب انتهای یک آراسته ",
        "City": "خرم آباد",
        "Province": "لرستان",
        "OfferPercent": 5.6,
        "MainImageUri": "/Content/ServiceImages/7842.jpg"
    },
    {
        "Id": 3060,
        "Title": "مواد غذایی شاداب ",
        "Category": "هایپر مارکت و سوپر مارکت ها",
        "Location": "بلوار حج خیابان دکتر فاطمی ",
        "City": "خرم آباد",
        "Province": "لرستان",
        "OfferPercent": 4,
        "MainImageUri": "/Content/ServiceImages/7849.jpg"
    },
    {
        "Id": 3062,
        "Title": "دفتر اسناد رسمی",
        "Category": "تبلیغات و چاپخانه",
        "Location": "خیابان علوی",
        "City": "خرم آباد",
        "Province": "لرستان",
        "OfferPercent": 6.4,
        "MainImageUri": "/Content/ServiceImages/7863.jpg"
    },
    {
        "Id": 3065,
        "Title": "گالری گل هستی ",
        "Category": "فروشگاه و گالری",
        "Location": "پاساژ پردیس ",
        "City": "دورود",
        "Province": "لرستان",
        "OfferPercent": 8,
        "MainImageUri": "/Content/ServiceImages/7883.jpg"
    },
    {
        "Id": 3069,
        "Title": "مبل خوش نشین ملایر",
        "Category": "لوازم خانگی و کاربردی منزل",
        "Location": "بلوار شهرداری ",
        "City": "بروجرد",
        "Province": "لرستان",
        "OfferPercent": 6.4,
        "MainImageUri": "/Content/ServiceImages/7915.jpg"
    },
    {
        "Id": 3072,
        "Title": "کالای خواب اسنوز",
        "Category": "فروشگاه و گالری",
        "Location": "سی متری سینما سعدی",
        "City": "شیراز",
        "Province": "فارس",
        "OfferPercent": 9.6,
        "MainImageUri": "/Content/ServiceImages/7935.jpg"
    },
    {
        "Id": 3070,
        "Title": "بوتیک زنانه ترنج",
        "Category": "فروشگاه و گالری",
        "Location": "مجتمع تجاری خلیج فارس",
        "City": "شیراز",
        "Province": "فارس",
        "OfferPercent": 4,
        "MainImageUri": "/Content/ServiceImages/7950.jpg"
    },
    {
        "Id": 3079,
        "Title": "کیف و کفش نی نی پا",
        "Category": "فروشگاه و گالری",
        "Location": "مجتمع تجاری خلیج فارس",
        "City": "شیراز",
        "Province": "فارس",
        "OfferPercent": 9.6,
        "MainImageUri": "/Content/ServiceImages/7982.jpg"
    },
    {
        "Id": 3077,
        "Title": "لوازم خانگی اسنوا ",
        "Category": "لوازم خانگی و کاربردی منزل",
        "Location": "نبش خیابان دلفان ",
        "City": "خرم آباد",
        "Province": "لرستان",
        "OfferPercent": 4,
        "MainImageUri": "/Content/ServiceImages/7973.jpg"
    },
    {
        "Id": 3082,
        "Title": "گالری ظروف پلاستیکی پلاسکو",
        "Category": "فروشگاه و گالری",
        "Location": "ظروف پلاستیکی",
        "City": "شیراز",
        "Province": "فارس",
        "OfferPercent": 4,
        "MainImageUri": "/Content/ServiceImages/8011.jpg"
    },
    {
        "Id": 3083,
        "Title": "فست فود کپلو ویچ",
        "Category": "رستوران و فست فود و کافه و بستنی",
        "Location": "بلوار عدالت شمالی",
        "City": "شیراز",
        "Province": "فارس",
        "OfferPercent": 8,
        "MainImageUri": "/Content/ServiceImages/8016.jpg"
    },
    {
        "Id": 3091,
        "Title": "آتلیه تخصصی فیلم و عکس نوژان",
        "Category": "خدمات",
        "Location": "چهار راه زندان ",
        "City": "شیراز",
        "Province": "فارس",
        "OfferPercent": 20,
        "MainImageUri": "/Content/ServiceImages/8068.jpg"
    },
    {
        "Id": 3093,
        "Title": "فروشگاه آفر گلپایگان",
        "Category": "فروشگاه و گالری",
        "Location": "بلوار پاسارگاد",
        "City": "شیراز",
        "Province": "فارس",
        "OfferPercent": 12,
        "MainImageUri": "/Content/ServiceImages/8072.jpg"
    },
    {
        "Id": 3096,
        "Title": "داماد سرا نیک",
        "Category": "زیبایی و آرایشی",
        "Location": "باسکول نادر",
        "City": "شیراز",
        "Province": "فارس",
        "OfferPercent": 8,
        "MainImageUri": "/Content/ServiceImages/8101.jpg"
    },
    {
        "Id": 3097,
        "Title": "عرضه کننده انواع شلوار پارچه ای ",
        "Category": "فروشگاه و گالری",
        "Location": "قصرالدشت ",
        "City": "شیراز",
        "Province": "فارس",
        "OfferPercent": 8,
        "MainImageUri": "/Content/ServiceImages/8134.jpg"
    },
    {
        "Id": 3101,
        "Title": "رستوران نگین با غذا های عالی و با کیفیت",
        "Category": "رستوران و فست فود و کافه و بستنی",
        "Location": "چهار راه زندان",
        "City": "شیراز",
        "Province": "فارس",
        "OfferPercent": 6.4,
        "MainImageUri": "/Content/ServiceImages/8132.jpg"
    },
    {
        "Id": 3102,
        "Title": "کفش چمانه ارائه دهنده انواع کفش",
        "Category": "فروشگاه و گالری",
        "Location": "چهار راه خیرات",
        "City": "شیراز",
        "Province": "فارس",
        "OfferPercent": 8,
        "MainImageUri": "/Content/ServiceImages/8203.jpg"
    },
    {
        "Id": 3109,
        "Title": "کافه کاکو",
        "Category": "رستوران و فست فود و کافه و بستنی",
        "Location": "چهارراه گمرک",
        "City": "شیراز",
        "Province": "فارس",
        "OfferPercent": 8,
        "MainImageUri": "/Content/ServiceImages/8181.jpg"
    },
    {
        "Id": 3121,
        "Title": "شهر آبمیوه ",
        "Category": "رستوران و فست فود و کافه و بستنی",
        "Location": "عفیف آباد",
        "City": "شیراز",
        "Province": "فارس",
        "OfferPercent": 16,
        "MainImageUri": "/Content/ServiceImages/8833.jpg"
    },
    {
        "Id": 3126,
        "Title": "ایران زانتیا",
        "Category": "خدمات اتومبیل",
        "Location": "چهارراه ریشمک",
        "City": "شیراز",
        "Province": "فارس",
        "OfferPercent": 10.4,
        "MainImageUri": "/Content/ServiceImages/8830.jpg"
    },
    {
        "Id": 3129,
        "Title": "فیزو تراپی و آب درمانی دراک ",
        "Category": "سلامتی و پزشکی",
        "Location": "فرهنگ شهر ",
        "City": "شیراز",
        "Province": "فارس",
        "OfferPercent": 16,
        "MainImageUri": "/Content/ServiceImages/8828.jpg"
    },
    {
        "Id": 3130,
        "Title": "مرکز لیزر وندا",
        "Category": "سلامتی و پزشکی",
        "Location": "ملاصدرا",
        "City": "شیراز",
        "Province": "فارس",
        "OfferPercent": 20,
        "MainImageUri": "/Content/ServiceImages/8827.jpg"
    },
    {
        "Id": 3133,
        "Title": "بینایی سنجی و عینک سازی",
        "Category": "سلامتی و پزشکی",
        "Location": "بیست متری سینما سعدی",
        "City": "شیراز",
        "Province": "فارس",
        "OfferPercent": 12,
        "MainImageUri": "/Content/ServiceImages/8822.jpg"
    },
    {
        "Id": 3134,
        "Title": "کیف و کفش درسا ",
        "Category": "فروشگاه و گالری",
        "Location": "چهار راه خیرات ",
        "City": "شیراز",
        "Province": "فارس",
        "OfferPercent": 16,
        "MainImageUri": "/Content/ServiceImages/8821.jpg"
    },
    {
        "Id": 3135,
        "Title": "فروشگاه کالای خانه و آشپزخانه سر و سامان",
        "Category": "لوازم خانگی و کاربردی منزل",
        "Location": "مجتمع نگین فارس",
        "City": "شیراز",
        "Province": "فارس",
        "OfferPercent": 10.4,
        "MainImageUri": "/Content/ServiceImages/8345.jpg"
    },
    {
        "Id": 3146,
        "Title": "سوپر مارکت معلم ",
        "Category": "هایپر مارکت و سوپر مارکت ها",
        "Location": "میدان معلم",
        "City": "شیراز",
        "Province": "فارس",
        "OfferPercent": 7.2,
        "MainImageUri": "/Content/ServiceImages/8422.jpg"
    },
    {
        "Id": 3143,
        "Title": "کفش لنگه به لنگه ",
        "Category": "فروشگاه و گالری",
        "Location": "چهار راه خیرات",
        "City": "شیراز",
        "Province": "فارس",
        "OfferPercent": 8,
        "MainImageUri": "/Content/ServiceImages/8813.jpg"
    },
    {
        "Id": 3141,
        "Title": "کافه دالیز برترین نوشیدنی های سرد و گرم",
        "Category": "رستوران و فست فود و کافه و بستنی",
        "Location": "مجتمع نگین فارس",
        "City": "شیراز",
        "Province": "فارس",
        "OfferPercent": 12,
        "MainImageUri": "/Content/ServiceImages/8393.jpg"
    },
    {
        "Id": 3152,
        "Title": "خشکبار مخصوص ",
        "Category": "آجیل و خشکبار - شیرینی فروشی",
        "Location": "چهار راه ملاصدرا",
        "City": "شیراز",
        "Province": "فارس",
        "OfferPercent": 4,
        "MainImageUri": "/Content/ServiceImages/8803.jpg"
    },
    {
        "Id": 3153,
        "Title": "شرکت خدماتی احسان نیک ",
        "Category": "سلامتی و پزشکی",
        "Location": "قصرالدشت",
        "City": "شیراز",
        "Province": "فارس",
        "OfferPercent": 16,
        "MainImageUri": "/Content/ServiceImages/8802.jpg"
    },
    {
        "Id": 3154,
        "Title": "عطاری اسد افروز ",
        "Category": "سلامتی و پزشکی",
        "Location": "زرهی ",
        "City": "شیراز",
        "Province": "فارس",
        "OfferPercent": 8,
        "MainImageUri": "/Content/ServiceImages/8801.jpg"
    },
    {
        "Id": 3164,
        "Title": "شیرینی رزیتا",
        "Category": "آجیل و خشکبار - شیرینی فروشی",
        "Location": "ميدان گاز",
        "City": "شیراز",
        "Province": "فارس",
        "OfferPercent": 3.2,
        "MainImageUri": "/Content/ServiceImages/8522.jpg"
    }
]